,latitude,longitude,index,name,cost_text,Bed,Bath,Park,property_type,desc_head
0,-37.8650177,144.9746821,https://www.domain.com.au/3502-14-16-the-esplanade-st-kilda-vic-3182-16002767,3502/14-16 The Esplanade St Kilda VIC 3182,5000,1,1,1,Apartment / Unit / Flat,noth els compar
1,-37.8141725,144.9740049,https://www.domain.com.au/4203-35-spring-street-melbourne-vic-3000-15939303,4203/35 Spring Street Melbourne VIC 3000,4500,3,2,2,Apartment / Unit / Flat,arguabl captiv penthous
2,-37.8301164,144.9569041,https://www.domain.com.au/901-902-85-market-street-south-melbourne-vic-3205-14089455,901 & 902/85 Market Street South Melbourne VIC 3205,3750.0,2,2,1,Apartment / Unit / Flat,call exclus penthous short stay minimum week stay
3,-37.8310813,145.0520938,https://www.domain.com.au/hawthorn-east-vic-3123-15909448,Hawthorn East VIC 3123,3750,4,2,3,House,luxuri finest month leas avail unfurnish fulli furnish
4,-37.8223967,144.938237,https://www.domain.com.au/50-south-wharf-drive-docklands-vic-3008-16048359,50 South Wharf Drive Docklands VIC 3008,3750,2,2,1,Townhouse,luxuri style space
5,-37.8534875,145.0311415,https://www.domain.com.au/7-haverbrack-avenue-malvern-vic-3144-16041473,7 Haverbrack Avenue Malvern VIC 3144,3500,2,2,2,House,famili exclus resort style ground
6,-37.8155278,145.0368923,https://www.domain.com.au/603-862-glenferrie-road-hawthorn-vic-3122-15954871,603/862 Glenferrie Road Hawthorn VIC 3122,3500,3,3,2,Apartment / Unit / Flat,hawthorn best penthous amaz citi view
7,-37.8016119,145.0287974,https://www.domain.com.au/1-molesworth-street-kew-vic-3101-16037410,1 Molesworth Street Kew VIC 3101,3500,2,1,1,House,opul famili masterpiec central
8,-37.9171837,144.9882699,https://www.domain.com.au/9-keith-court-brighton-vic-3186-16058214,9 Keith Court Brighton VIC 3186,3500.0,4,2,0,House,applic
9,-37.895941,144.986729,https://www.domain.com.au/1-20-kent-avenue-brighton-vic-3186-16069407,1/20 Kent Avenue Brighton VIC 3186,3500.0,3,1,1,House,premier locat could next home
10,-37.8330903,145.0331881,https://www.domain.com.au/493-glenferrie-road-hawthorn-vic-3122-16030008,493 Glenferrie Road Hawthorn VIC 3122,3500,2,1,1,House,stun resid privat conveni
11,-37.8895631,145.0883004,https://www.domain.com.au/13-780-warrigal-rd-malvern-east-vic-3145-15359332,13/780 Warrigal Rd Malvern East VIC 3145,3300,1,1,1,Apartment / Unit / Flat,short walk shop
12,-37.807859,144.960611,https://www.domain.com.au/7302-462-elizabeth-street-melbourne-vic-3000-15631154,7302/462 Elizabeth Street Melbourne VIC 3000,3100,4,4,3,Apartment / Unit / Flat,furnish execut apart floor unlimit high speed
13,-37.8090372,144.9610905,https://www.domain.com.au/3607-80-a-beckett-street-melbourne-vic-3000-11696896,3607/80 A'Beckett Street Melbourne VIC 3000,3000,2,2,1,Apartment / Unit / Flat,bedroom apart
14,-37.841798,144.8788595,https://www.domain.com.au/50-mason-street-newport-vic-3015-15437766,50 Mason Street Newport VIC 3015,3000,4,2,4,House,ideal medic room maximum exposur heart
15,-37.9302634,145.0000624,https://www.domain.com.au/10-margarita-st-hampton-vic-3188-16069683,10 Margarita St Hampton VIC 3188,3000,4,2,4,House,heavenli
16,-37.9399869,145.0199068,https://www.domain.com.au/1-bronte-court-hampton-vic-3188-16043802,1 Bronte Court Hampton VIC 3188,3000,4,3,2,House,masterpiec
17,-37.9152565,144.9991801,https://www.domain.com.au/9-9-11-adamson-street-brighton-vic-3186-16071478,9/9-11 Adamson Street Brighton VIC 3186,3000,4,2,3,Apartment / Unit / Flat,penthous
18,-37.8650177,144.9746821,https://www.domain.com.au/2202-14-16-the-esplanade-st-kilda-vic-3182-15969170,2202/14-16 The Esplanade St Kilda VIC 3182,3000,3,2,2,Apartment / Unit / Flat,exclus new address welcom saint
19,-37.915482,144.9891089,https://www.domain.com.au/5-wellington-street-brighton-vic-3186-15950472,5 Wellington Street Brighton VIC 3186,2995,5,3,2,House,contemporari masterpiec
20,-37.8650177,144.9746821,https://www.domain.com.au/2401-14-16-the-esplanade-st-kilda-vic-3182-16072629,2401/14-16 The Esplanade St Kilda VIC 3182,2800,3,2,2,Apartment / Unit / Flat,beach view luxuri throughout
21,-37.831142,144.9708545,https://www.domain.com.au/251-350-st-kilda-road-melbourne-vic-3000-15951316,251/350 St Kilda Road Melbourne VIC 3000,2800,3,3,2,Apartment / Unit / Flat,half floor penthous apart desir st
22,-37.8650177,144.9746821,https://www.domain.com.au/2601-14-16-the-esplanade-st-kilda-vic-3182-16047323,2601/14-16 The Esplanade St Kilda VIC 3182,2700,3,2,2,Apartment / Unit / Flat,live life like welcom saint
23,-37.7965569,144.9711271,https://www.domain.com.au/119-121-palmerston-street-carlton-vic-3053-13973576,119-121 Palmerston Street Carlton VIC 3053,2600,2,2,1,House,ultim indulg
24,-37.9200549,144.9957406,https://www.domain.com.au/42-dendy-street-brighton-vic-3186-15988734,42 Dendy Street Brighton VIC 3186,2600.0,4,3,2,House,luxuri resid design famili live
25,-37.8114187,144.9587916,https://www.domain.com.au/231-299-queen-street-melbourne-vic-3000-15986804,231/299 Queen Street Melbourne VIC 3000,2600.0,3,2,2,Apartment / Unit / Flat,metropoli penthous republ tower
26,-37.8270184,144.9997611,https://www.domain.com.au/richmond-vic-3121-13533466,Richmond VIC 3121,2500,3,2,2,House,fulli furnish farmhous huge garden avail
27,-37.8175602,144.9585916,https://www.domain.com.au/5401-464-collins-street-melbourne-vic-3000-16063884,5401/464 Collins Street Melbourne VIC 3000,2500,2,2,2,Apartment / Unit / Flat,hous sub penthous half floor extraordinari view
28,-37.8396668,145.0842242,https://www.domain.com.au/156-highfield-road-camberwell-vic-3124-16062806,156 Highfield Road Camberwell VIC 3124,2500,4,2,2,House,ultim exclus live
29,-37.8650177,144.9746821,https://www.domain.com.au/3203-14-16-the-esplanade-st-kilda-vic-3182-15986065,3203/14-16 The Esplanade St Kilda VIC 3182,2500,3,3,2,Apartment / Unit / Flat,live life like exclus leas opportun ocean view
30,-37.8472801,145.0067771,https://www.domain.com.au/21-mathoura-road-toorak-vic-3142-15987977,21 Mathoura Road Toorak VIC 3142,2500.0,3,2,2,House,hick design desir local
31,-37.8439084,145.0125453,https://www.domain.com.au/24-montalto-avenue-toorak-vic-3142-16063542,24 Montalto Avenue Toorak VIC 3142,2500,2,2,2,House,eleg contemporari
32,-37.880361,144.9889154,https://www.domain.com.au/3-knight-street-elwood-vic-3184-16014388,3 Knight Street Elwood VIC 3184,2500,3,3,1,House,strike three bedroom home pool separ studio agent
33,-37.9837637,145.0499964,https://www.domain.com.au/46-48-wells-road-beaumaris-vic-3193-16001198,46-48 Wells Road Beaumaris VIC 3193,2500.0,4,3,2,House,exquisit live beauti
34,-37.8988631,145.0019562,https://www.domain.com.au/133-north-road-brighton-vic-3186-16017654,133 North Road Brighton VIC 3186,2500,2,2,1,House,brilliant beauti
35,-37.8486962,145.0161183,https://www.domain.com.au/21-iona-avenue-toorak-vic-3142-16065186,21 Iona Avenue Toorak VIC 3142,2500.0,4,2,0,House,period famili home stellar locat
36,-37.9016247,145.0047756,https://www.domain.com.au/27-grandview-road-brighton-vic-3186-15993971,27 Grandview Road Brighton VIC 3186,2400.0,4,3,2,House,grand scale entertain famili flair
37,-37.9013936,144.9849778,https://www.domain.com.au/1-2-shandford-avenue-brighton-vic-3186-15995849,1/2 SHANDFORD Avenue Brighton VIC 3186,2400.0,5,4,3,Townhouse,foreshor beauti
38,-37.8114751,144.9586205,https://www.domain.com.au/241-299-queen-street-melbourne-vic-3000-15998618,241/299 Queen Street Melbourne VIC 3000,2400,3,2,0,Apartment / Unit / Flat,boast locat lifestyl size two level
39,-37.887544,145.087289,https://www.domain.com.au/15-webster-street-malvern-east-vic-3145-13350636,15 Webster Street Malvern East VIC 3145,2307.6923076923076,4,2,4,House,potenti room hous short term accommod
40,-37.8161357,145.0713258,https://www.domain.com.au/7-myambert-avenue-balwyn-vic-3103-15826562,7 Myambert Avenue Balwyn VIC 3103,2300,4,3,3,House,clearli one best
41,-37.8444355,145.0176639,https://www.domain.com.au/12-clendon-court-toorak-vic-3142-14238687,12 Clendon Court Toorak VIC 3142,2300,4,2,0,House,superb locat heart
42,-37.8330181,145.0118565,https://www.domain.com.au/99-grange-road-toorak-vic-3142-16076958,99 Grange Road Toorak VIC 3142,2200.0,3,2,1,House,delux hous perfect entertain area
43,-37.85662,145.018182,https://www.domain.com.au/4a-fetherston-street-armadale-vic-3143-15975645,4a Fetherston Street Armadale VIC 3143,2200.0,4,2,1,House,exclus inner urban lifestyl
44,-37.8929745,144.9956723,https://www.domain.com.au/478-new-street-brighton-vic-3186-15992205,478 New Street Brighton VIC 3186,2200,4,3,2,House,masterpiec
45,-37.8119277,145.0486915,https://www.domain.com.au/3-thomas-street-kew-vic-3101-16075570,3 Thomas Street Kew VIC 3101,2200,5,5,2,House,expans ward famili home
46,-37.95440749999999,145.0067771,https://www.domain.com.au/4-cowper-street-sandringham-vic-3191-16043512,4 Cowper Street Sandringham VIC 3191,2150.0,4,2,2,House,execut famili home
47,-37.8903662,145.0205525,https://www.domain.com.au/2a-omar-street-caulfield-south-vic-3162-16036419,2a Omar Street Caulfield South VIC 3162,2100.0,4,3,3,House,absolut perfect
48,-38.1444939,145.1433389,https://www.domain.com.au/22-campbell-street-frankston-vic-3199-15959231,22 Campbell Street Frankston VIC 3199,2100,4,2,2,House,bond furnish bill includ
49,-37.927999,145.0033766,https://www.domain.com.au/8-champion-street-brighton-vic-3186-16048073,8 Champion Street Brighton VIC 3186,2100.0,5,3,2,House,stun home superb locat
50,-37.8141725,144.9740049,https://www.domain.com.au/unit-2707-35-spring-street-melbourne-vic-3000-16044913,UNIT 2707/35 SPRING STREET Melbourne VIC 3000,2050,3,2,2,Apartment / Unit / Flat,immedi spring street view
51,-37.8942781,144.98678519999999,https://www.domain.com.au/4-19-birdwood-avenue-brighton-vic-3186-15875170,4/19 Birdwood Avenue Brighton VIC 3186,2000.0,3,3,2,Apartment / Unit / Flat,penthous balconi pool overlook bay
52,-37.8604005,144.9755109,https://www.domain.com.au/101-34-fitzroy-street-st-kilda-vic-3182-16079851,101/34 Fitzroy Street St Kilda VIC 3182,2000,2,1,1,Apartment / Unit / Flat,unconvent luxuri sophist design fulli furnish
53,-37.9245614,144.9889585,https://www.domain.com.au/2-winmarleigh-close-brighton-vic-3186-15954363,2 Winmarleigh Close Brighton VIC 3186,2000.0,5,4,3,House,eleg famili home minut beach
54,-37.808286,144.9804809,https://www.domain.com.au/163-victoria-parade-fitzroy-vic-3065-15870974,163 Victoria Parade Fitzroy VIC 3065,2000.0,4,1,0,House,histor home garag apart
55,-37.8392541,144.995015,https://www.domain.com.au/1002-243-toorak-road-south-yarra-vic-3141-16056057,1002/243 Toorak Road South Yarra VIC 3141,2000,2,2,2,Apartment / Unit / Flat,fulli furnish capitol grand apart
56,-37.980529,145.0519862,https://www.domain.com.au/7-bonanza-road-beaumaris-vic-3193-15960625,7 Bonanza Road Beaumaris VIC 3193,2000,5,3,2,House,luxuri famili compound first class locat
57,-37.8073886,144.962087,https://www.domain.com.au/3803-483-swanston-street-melbourne-vic-3000-15680157,3803/483 Swanston Street Melbourne VIC 3000,2000,3,2,2,Apartment / Unit / Flat,breath take view execut style live fulli furnish
58,-37.8302556,144.9579151,https://www.domain.com.au/85-market-street-south-melbourne-vic-3205-14089206,85 Market Street South Melbourne VIC 3205,2000.0,2,3,0,Apartment / Unit / Flat,call self contain execut bedroom bathroom apart short stay minimum week stay per week
59,-37.8161357,145.0713258,https://www.domain.com.au/7-myambert-avenue-balwyn-vic-3103-15996572,7 Myambert Avenue Balwyn VIC 3103,2000.0,6,4,2,House,charm exclus central locat
60,-37.9169,145.0147997,https://www.domain.com.au/8-st-finbars-crescent-brighton-east-vic-3187-15969436,8 St Finbars Crescent Brighton East VIC 3187,1995.0,5,3,4,House,let
61,-37.8577879,144.9811923,https://www.domain.com.au/802-181-fitzroy-st-st-kilda-vic-3182-15915050,802/181 Fitzroy St St Kilda VIC 3182,1975,2,2,1,Apartment / Unit / Flat,stylish penthous execut live magnific view conveni locat
62,-37.9427326,145.0114045,https://www.domain.com.au/52-sargood-street-hampton-vic-3188-16053158,52 Sargood Street Hampton VIC 3188,1950,4,2,3,House,furnish charm four bedroom home
63,-37.8220137,144.9659363,https://www.domain.com.au/1203-57-city-road-southbank-vic-3006-15631603,1203/57 City Road Southbank VIC 3006,1950,3,2,1,Apartment / Unit / Flat,execut apart perfect locat rent inclus bill unlimit
64,-37.8445337,145.0669753,https://www.domain.com.au/27-donna-buang-street-camberwell-vic-3124-15704271,27 Donna Buang Street Camberwell VIC 3124,1900,1,1,0,House,contemporari famili home six bedroom
65,-37.9040743,144.9974369,https://www.domain.com.au/7-wagstaff-court-brighton-vic-3186-15967461,7 Wagstaff Court Brighton VIC 3186,1900,5,3,4,House,ultim lifestyl
66,-37.8831984,144.9894319,https://www.domain.com.au/120-glen-huntly-road-elwood-vic-3184-16058926,120 Glen Huntly Road Elwood VIC 3184,1900,2,2,1,Townhouse,level luxuri resid
67,-37.9218363,144.9971144,https://www.domain.com.au/9-exon-street-brighton-vic-3186-16020106,9 Exon Street Brighton VIC 3186,1850.0,4,2,4,House,spaciou famili entertain
68,-37.973172,145.0166374,https://www.domain.com.au/19-iona-street-black-rock-vic-3193-16018912,19 Iona Street Black Rock VIC 3193,1850,4,1,2,House,water view wonder premier poolsid lifestyl
69,-37.8368651,145.0082406,https://www.domain.com.au/23a-bruce-street-toorak-vic-3142-16012345,23A Bruce Street Toorak VIC 3142,1850,4,2,2,House,eleg north villag
70,-37.8350884,145.0554322,https://www.domain.com.au/103-pleasant-road-hawthorn-east-vic-3123-16076834,103 Pleasant Road Hawthorn East VIC 3123,1850,4,2,4,Townhouse,stun qualiti modern luxuri junction conveni
71,-37.8967832,144.9872371,https://www.domain.com.au/5-alimar-court-brighton-vic-3186-15910332,5 Alimar Court Brighton VIC 3186,1800.0,4,2,2,House,lifestyl
72,-37.8390089,144.9954417,https://www.domain.com.au/2301-1-almeida-crescent-south-yarra-vic-3141-14425729,2301/1 Almeida Crescent South Yarra VIC 3141,1800,2,2,1,Apartment / Unit / Flat,luxuri bedroom capitol grand
73,-37.851786,144.9581506,https://www.domain.com.au/112-harold-st-middle-park-vic-3206-16049514,112 Harold St Middle Park VIC 3206,1800,4,2,0,House,eleg sea
74,-37.8161275,144.984988,https://www.domain.com.au/1302-1-powlett-street-east-melbourne-vic-3002-15984037,1302/1 Powlett Street East Melbourne VIC 3002,1800.0,1,1,1,Apartment / Unit / Flat,penthous breathtak view
75,-37.8381353,145.0428994,https://www.domain.com.au/2-airedale-avenue-hawthorn-east-vic-3123-16029073,2 Airedale Avenue Hawthorn East VIC 3123,1800.0,4,2,0,House,stun contemporari resid
76,-37.9527473,145.0172376,https://www.domain.com.au/24-dreadnought-street-sandringham-vic-3191-16037409,24 Dreadnought Street Sandringham VIC 3191,1800,4,1,2,House,light bright modern spaciou famili home pool
77,-37.8149074,145.0724458,https://www.domain.com.au/24-salisbury-street-balwyn-vic-3103-16081852,24 Salisbury Street Balwyn VIC 3103,1800,4,3,2,House,beauti stylish hous
78,-37.8255907,144.9705826,https://www.domain.com.au/417-250-st-kilda-road-southbank-vic-3006-16052549,417/250 St Kilda Road Southbank VIC 3006,1800,2,2,0,Apartment / Unit / Flat,prestigi address
79,-37.8162107,144.9859245,https://www.domain.com.au/7-126-wellington-parade-east-melbourne-vic-3002-16061003,7/126 Wellington Parade East Melbourne VIC 3002,1800,2,2,1,Apartment / Unit / Flat,furnish penthous entertain crown jewel citi view
80,-37.8318086,144.9710272,https://www.domain.com.au/1901-368-st-kilda-road-melbourne-vic-3000-16073890,1901/368 St Kilda Road Melbourne VIC 3000,1800,2,2,2,Apartment / Unit / Flat,royal domain apart offer best view
81,-37.851373,144.990978,https://www.domain.com.au/1-125-high-st-prahran-vic-3181-15340091,1/125 High St Prahran VIC 3181,1799,3,3,1,Apartment / Unit / Flat,featur popular realiti seri block avail week minimum month
82,-37.8615448,144.980653,https://www.domain.com.au/12-gurner-street-st-kilda-vic-3182-16000740,12 Gurner Street St Kilda VIC 3182,1750.0,4,2,0,House,st showstopp
83,-37.8475835,145.0382487,https://www.domain.com.au/22-ethel-street-malvern-vic-3144-16026921,22 Ethel Street Malvern VIC 3144,1750.0,6,4,3,House,modern famili live outdoor balanc
84,-37.921372,145.0083913,https://www.domain.com.au/140-dendy-street-brighton-east-vic-3187-16006734,140 Dendy Street Brighton East VIC 3187,1750.0,5,3,2,House,magnific famili home flexibl live option
85,-37.8675203,144.9922635,https://www.domain.com.au/15c-alfred-street-balaclava-vic-3183-15045825,15C Alfred Street Balaclava VIC 3183,1731,5,1,2,House,enorm hous heart balaclava amaz valu suit group
86,-37.8310247,145.0554317,https://www.domain.com.au/penthouse-469-riversdale-road-hawthorn-east-vic-3123-15925871,Penthouse/469 Riversdale Road Hawthorn East VIC 3123,1700,4,2,1,Apartment / Unit / Flat,brand new penthous degre view
87,-37.9082205,145.0202942,https://www.domain.com.au/14-mackie-grove-brighton-east-vic-3187-16056520,14 Mackie Grove Brighton East VIC 3187,1700.0,3,3,2,House,polish gem wonder east famili home
88,-37.8483586,144.9600865,https://www.domain.com.au/167-richardson-street-middle-park-vic-3206-16073349,167 Richardson Street Middle Park VIC 3206,1700.0,3,2,1,House,attract newli renov home ideal locat
89,-37.9276055,145.0145686,https://www.domain.com.au/238b-were-street-brighton-east-vic-3187-16047072,238B Were Street Brighton East VIC 3187,1700.0,5,3,2,Townhouse,luxuri finest golf cours view
90,-37.8356144,144.980566,https://www.domain.com.au/76-millswyn-street-south-yarra-vic-3141-15880809,76 Millswyn Street South Yarra VIC 3141,1700.0,2,1,0,House,except live premium posit
91,-37.9052991,144.9865485,https://www.domain.com.au/19-moule-avenue-brighton-vic-3186-15981059,19 Moule Avenue Brighton VIC 3186,1695.0,5,4,2,House,grand entertain golden mile
92,-37.9048689,144.991408,https://www.domain.com.au/4-newbay-crescent-brighton-vic-3186-16001646,4 Newbay Crescent Brighton VIC 3186,1690.0,3,2,2,House,famili home blue chip address
93,-37.8644429,145.0070354,https://www.domain.com.au/25-holroyd-avenue-st-kilda-east-vic-3183-16059289,25 Holroyd Avenue St Kilda East VIC 3183,1650.0,4,2,0,House,pictur perfect creatur comfort
94,-37.840077,144.941296,https://www.domain.com.au/18-156-bay-street-port-melbourne-vic-3207-16077726,18/156 Bay Street Port Melbourne VIC 3207,1650,3,2,2,Apartment / Unit / Flat,villag penthous live
95,-37.8223083,145.0750521,https://www.domain.com.au/5-victoria-avenue-canterbury-vic-3126-15910266,5 Victoria Avenue Canterbury VIC 3126,1650.0,4,2,2,House,majest famili charm golden mile
96,-37.7788445,144.9011622,https://www.domain.com.au/8-tregunter-st-ascot-vale-vic-3032-16070702,8 Tregunter St Ascot Vale VIC 3032,1650.0,1,3,6,House,suprem riversid lifestyl live
97,-37.9042083,145.0021284,https://www.domain.com.au/2-10-asling-street-brighton-vic-3186-16043580,2/10 Asling Street Brighton VIC 3186,1650.0,5,3,2,Townhouse,luxuri locat lifestyl
98,-37.806543,144.95431,https://www.domain.com.au/464-william-street-west-melbourne-vic-3003-16077606,464 William Street West Melbourne VIC 3003,1650.0,2,2,0,House,luxuri space
99,-37.8260239,144.9595477,https://www.domain.com.au/5701-260-city-rd-southbank-vic-3006-15965033,5701/260 City Rd Southbank VIC 3006,1615,3,2,0,Apartment / Unit / Flat,luxuri feel like home heart
100,-37.81237309999999,145.0431577,https://www.domain.com.au/90-edgevale-road-kew-vic-3101-16078741,90 Edgevale Road Kew VIC 3101,1600.0,4,2,3,House,luxuri famili live
101,-37.81237309999999,145.0431577,https://www.domain.com.au/90-edgevale-road-kew-vic-3101-16078740,90 Edgevale Road Kew VIC 3101,1600.0,3,2,4,House,luxuri famili live
102,-37.8246544,145.0634276,https://www.domain.com.au/28-russell-street-camberwell-vic-3124-16003445,28 Russell Street Camberwell VIC 3124,1600,5,3,2,House,contact privat inspect
103,-37.8406272,144.9407724,https://www.domain.com.au/301-130-bay-street-port-melbourne-vic-3207-16014905,301/130 Bay Street Port Melbourne VIC 3207,1600,3,2,1,Apartment / Unit / Flat,sensat rooftop terrac
104,-37.8008811,145.072015,https://www.domain.com.au/9-kendari-ave-balwyn-north-vic-3104-16067409,9 Kendari Ave Balwyn North VIC 3104,1595.0,4,2,2,House,modern parkland home
105,-37.8008811,145.072015,https://www.domain.com.au/9-kendari-ave-balwyn-north-vic-3104-16028178,9 Kendari Ave Balwyn North VIC 3104,1595.0,6,3,2,House,modern parkland home
106,-37.79429020000001,145.0616907,https://www.domain.com.au/4-829-high-street-kew-east-vic-3102-16049165,4/829 High Street Kew East VIC 3102,1580,2,1,1,Apartment / Unit / Flat,brand new luxuri appoint penthous live terrac rooftop
107,-37.9186389,145.0502279,https://www.domain.com.au/14-evelyn-street-bentleigh-vic-3204-15988200,14 Evelyn Street Bentleigh VIC 3204,1550.0,4,2,4,Townhouse,sensat famili live pool
108,-37.8459438,144.9584503,https://www.domain.com.au/53-hambleton-street-albert-park-vic-3206-16066946,53 Hambleton Street Albert Park VIC 3206,1550.0,4,3,3,House,corner delight bedroom home two street frontag
109,-37.8542234,145.0644339,https://www.domain.com.au/24-gardiner-parade-glen-iris-vic-3146-16058635,24 Gardiner Parade Glen Iris VIC 3146,1550,2,1,3,House,locat perfect gener famili
110,-37.8350886,145.0554331,https://www.domain.com.au/103a-pleasant-road-hawthorn-east-vic-3123-16077226,103A Pleasant Road Hawthorn East VIC 3123,1550.0,4,3,3,Townhouse,breathtak new townhous absolut sensat
111,-37.8675296,144.9927002,https://www.domain.com.au/5-alfred-st-balaclava-vic-3183-15884901,5 Alfred St Balaclava VIC 3183,1504,4,2,2,House,renov hous premier locat
112,-37.82776339999999,144.9567525,https://www.domain.com.au/2803-63-haig-street-southbank-vic-3006-15631602,2803/63 Haig Street Southbank VIC 3006,1500,2,1,1,Apartment / Unit / Flat,bed bath fulli furnish park unlimit
113,-37.93645009999999,144.9982116,https://www.domain.com.au/71b-orlando-street-hampton-vic-3188-16056805,71B Orlando Street Hampton VIC 3188,1500,4,2,2,Townhouse,beach lifestyl brand new luxuri resid
114,-37.8533331,145.0879208,https://www.domain.com.au/9-muriel-street-glen-iris-vic-3146-16055689,9 Muriel Street Glen Iris VIC 3146,1500.0,4,3,2,House,evoc eleg except grand ladi
115,-37.8412014,145.0911679,https://www.domain.com.au/3-6-gilmour-rd-camberwell-vic-3124-16066736,3/6 Gilmour Rd Camberwell VIC 3124,1500.0,3,2,4,Townhouse,brand new modern sophist
116,-37.9249853,145.0045376,https://www.domain.com.au/685-hampton-street-brighton-vic-3186-16030685,685 Hampton Street Brighton VIC 3186,1500,5,3,2,House,leas
117,-37.8045402,144.9575597,https://www.domain.com.au/51a-o-connell-street-north-melbourne-vic-3051-16069317,51A O'Connell Street North Melbourne VIC 3051,1500,1,1,0,Apartment / Unit / Flat,award win warehous apart
118,-37.8231797,145.0078448,https://www.domain.com.au/283a-burnley-street-richmond-vic-3121-16064303,283A Burnley Street Richmond VIC 3121,1500,1,1,1,Townhouse,spectacular storey townhous rooftop terrac citi view lift turn tabl park
119,-37.8083229,144.9908124,https://www.domain.com.au/4-18-22-islington-street-collingwood-vic-3066-14109551,4/18-22 Islington Street Collingwood VIC 3066,1500,3,3,2,Townhouse,level townhous outstand view
120,-37.8301549,144.9500578,https://www.domain.com.au/2702-89-gladstone-street-south-melbourne-vic-3205-15631589,2702/89 Gladstone Street South Melbourne VIC 3205,1500,2,2,1,Apartment / Unit / Flat,inclus execut bay view resid free park
121,-37.8449043,145.0490361,https://www.domain.com.au/4-39-lawson-street-hawthorn-east-vic-3123-14653886,4/39 Lawson Street Hawthorn East VIC 3123,1500,4,3,2,Townhouse,premium live without comparison
122,-37.81359399999999,144.992457,https://www.domain.com.au/501-8-10-new-street-richmond-vic-3121-16035219,501/8-10 New Street Richmond VIC 3121,1500,1,1,1,Apartment / Unit / Flat,luxuri penthous apart spectacular view
123,-37.8136966,144.953207,https://www.domain.com.au/241-538-little-lonsdale-street-melbourne-vic-3000-16073278,241/538 Little Lonsdale Street Melbourne VIC 3000,1500,3,2,0,Apartment / Unit / Flat,luxuri doubl stori penthous
124,-37.8161444,144.9804594,https://www.domain.com.au/east-melbourne-vic-3002-15589957,East Melbourne VIC 3002,1500,1,1,1,Apartment / Unit / Flat,light fill larg bedroom locat
125,-37.8137726,145.1075618,https://www.domain.com.au/52-victoria-crescent-mont-albert-vic-3127-16018854,52 Victoria Crescent Mont Albert VIC 3127,1500,2,1,1,House,style retreat
126,-37.8411,144.990439,https://www.domain.com.au/22-davis-avenue-south-yarra-vic-3141-16072495,22 Davis Avenue South Yarra VIC 3141,1500.0,4,2,0,House,south finest live
127,-37.9145643,145.0055719,https://www.domain.com.au/unit-1-9-stanley-street-brighton-vic-3186-15235651,Unit 1/9 Stanley Street Brighton VIC 3186,1500,5,3,2,Townhouse,blue chip brillianc
128,-37.809144,144.958903,https://www.domain.com.au/4-15-19-anthony-street-melbourne-vic-3000-14905828,4/15-19 Anthony Street Melbourne VIC 3000,1500,4,2,1,Apartment / Unit / Flat,doubl storey penthous apart
129,-37.8650177,144.9746821,https://www.domain.com.au/2403-14-16-the-esplanade-st-kilda-vic-3182-16011041,2403/14-16 The Esplanade St Kilda VIC 3182,1500,3,2,2,Apartment / Unit / Flat,pinnacl prestigi apart live saint
130,-37.9326791,145.0200144,https://www.domain.com.au/11b-olive-st-hampton-vic-3188-16066090,11B Olive St Hampton VIC 3188,1500.0,3,2,2,House,inspect detail contact com
131,-37.8412014,145.0911679,https://www.domain.com.au/3-6-gilmour-rd-camberwell-vic-3124-16066737,3/6 Gilmour Rd Camberwell VIC 3124,1500.0,4,3,2,Townhouse,brand new modern sophist
132,-37.84710889999999,144.959495,https://www.domain.com.au/86-hambleton-street-middle-park-vic-3206-16079300,86 Hambleton Street Middle Park VIC 3206,1500,3,2,1,House,lavish famili home desir local
133,-37.9156204,144.9983193,https://www.domain.com.au/43-black-street-brighton-vic-3186-15831389,43 Black Street Brighton VIC 3186,1500.0,5,3,2,House,famili home fantast middl locat
134,-37.7976499,145.0280439,https://www.domain.com.au/7-lower-drive-kew-vic-3101-16030054,7 Lower Drive Kew VIC 3101,1500.0,3,1,2,House,incred luxuri home
135,-37.7946034,144.9571934,https://www.domain.com.au/72-fitzgibbon-street-parkville-vic-3052-15868255,72 Fitzgibbon Street Parkville VIC 3052,1495,3,1,1,House,execut live charm
136,-37.873865,144.977457,https://www.domain.com.au/1-marine-avenue-st-kilda-vic-3182-15610447,1 Marine Avenue St Kilda VIC 3182,1495,4,2,0,House,except rare famili home water view
137,-37.7945984,145.0250731,https://www.domain.com.au/36-cypress-way-kew-vic-3101-16029394,36 Cypress Way Kew VIC 3101,1495.0,4,2,0,House,contemporari home sought locat
138,-37.9036436,144.9894542,https://www.domain.com.au/41-bay-street-brighton-vic-3186-15910483,41 Bay Street Brighton VIC 3186,1490.0,3,3,2,House,bay near bay
139,-37.8043508,144.9481504,https://www.domain.com.au/18-18-curzon-street-west-melbourne-vic-3003-15672851,18/18 Curzon Street West Melbourne VIC 3003,1450,3,2,1,Apartment / Unit / Flat,spaciou industri modern apart furnish bill includ
140,-37.9182554,145.0151067,https://www.domain.com.au/3-bown-court-brighton-east-vic-3187-15919106,3 Bown Court Brighton East VIC 3187,1450.0,5,3,2,House,stun pool compliment larg home
141,-37.8434705,145.0091016,https://www.domain.com.au/10-ormsby-grove-toorak-vic-3142-16044813,10 Ormsby Grove Toorak VIC 3142,1450,2,1,1,House,execut live
142,-37.9253983,145.0449879,https://www.domain.com.au/14a-geel-street-bentleigh-vic-3204-16076602,14A Geel Street Bentleigh VIC 3204,1450.0,4,2,2,Townhouse,state art open
143,-37.838492,144.9438262,https://www.domain.com.au/207-esplanade-west-port-melbourne-vic-3207-16071401,207 Esplanade West Port Melbourne VIC 3207,1450,1,1,0,Townhouse,high end qualiti posit
144,-37.8020773,144.964928,https://www.domain.com.au/201-cardigan-carlton-vic-3053-16032657,201 Cardigan Carlton VIC 3053,1450,3,1,0,House,one biggest best
145,-37.7976372,145.0371722,https://www.domain.com.au/1-62-tennyson-street-kew-vic-3101-16008207,1/62 Tennyson Street Kew VIC 3101,1450.0,4,2,2,House,brand new contemporari townhous heart
146,-37.8390089,144.9954417,https://www.domain.com.au/2001-1-almeida-crescent-south-yarra-vic-3141-16036090,2001/1 ALMEIDA CRESCENT South Yarra VIC 3141,1450.0,3,2,1,Apartment / Unit / Flat,bedroom apart capitol grand first star build come car park storag cage
147,-37.8960062,145.0269675,https://www.domain.com.au/68-dover-street-caulfield-south-vic-3162-16074034,68 Dover Street Caulfield South VIC 3162,1400,4,4,2,House,five bedroom hous park view agent
148,-37.7765669,144.9756615,https://www.domain.com.au/190a-weston-street-brunswick-east-vic-3057-16053638,190A Weston Street Brunswick East VIC 3057,1400,2,1,1,Townhouse,hous tour insid sumptuou sophist architectur craft inner citi oasi
149,-37.7901277,144.9804379,https://www.domain.com.au/58-freeman-street-fitzroy-north-vic-3068-16061767,58 Freeman Street Fitzroy North VIC 3068,1400,4,2,1,House,impos famili terrac prime locat
150,-37.7680117,144.98586,https://www.domain.com.au/41-zoe-circuit-northcote-vic-3070-16042941,41 Zoe Circuit Northcote VIC 3070,1400,4,3,5,House,exemplari famili contemporari class
151,-37.8148924,144.9536021,https://www.domain.com.au/3811-639-lonsdale-street-melbourne-vic-3000-15678001,3811/639 Lonsdale Street Melbourne VIC 3000,1400,2,2,1,Apartment / Unit / Flat,million dollar view overlook marvel stadium dockland bridg
152,-37.8935491,145.0074658,https://www.domain.com.au/30-gough-street-elsternwick-vic-3185-15991544,30 Gough Street Elsternwick VIC 3185,1400,4,4,4,House,perfect famili home
153,-37.8387934,144.9498374,https://www.domain.com.au/13-tribe-street-south-melbourne-vic-3205-16070468,13 Tribe Street South Melbourne VIC 3205,1400.0,3,1,0,House,flexibl surprisingli spaciou
154,-37.84698789999999,145.003764,https://www.domain.com.au/188-williams-road-toorak-vic-3142-16006684,188 Williams Road Toorak VIC 3142,1400.0,4,2,2,House,four bedroom famili home
155,-37.8200938,145.0680735,https://www.domain.com.au/14-avenue-athol-canterbury-vic-3126-16070437,14 Avenue Athol Canterbury VIC 3126,1400,2,2,1,House,larg famili home pool
156,-37.8521518,145.0208754,https://www.domain.com.au/123-kooyong-road-armadale-vic-3143-16048128,123 Kooyong Road Armadale VIC 3143,1400.0,3,2,2,House,magnific period home
157,-37.8536301,144.989448,https://www.domain.com.au/1-david-lane-windsor-vic-3181-15900527,1 David Lane Windsor VIC 3181,1400.0,4,2,0,House,state art execut live
158,-37.8580805,145.0087141,https://www.domain.com.au/26-vail-street-prahran-vic-3181-16064768,26 Vail Street Prahran VIC 3181,1400.0,4,2,0,House,except perfect famili appeal
159,-37.9245238,144.9876674,https://www.domain.com.au/58-esplanade-brighton-vic-3186-16079308,58 Esplanade Brighton VIC 3186,1400.0,5,2,2,House,spectacular panoram view
160,-37.758969,144.959178,https://www.domain.com.au/52-54-tinning-street-brunswick-vic-3056-16061469,52-54 Tinning Street Brunswick VIC 3056,1400,3,1,1,House,space matter
161,-37.9159403,145.0226836,https://www.domain.com.au/2b-parklands-crescent-brighton-east-vic-3187-16052406,2B Parklands Crescent Brighton East VIC 3187,1400,4,2,1,Townhouse,privat luxuri resid
162,-37.846725,144.948226,https://www.domain.com.au/82-reed-street-albert-park-vic-3206-16059174,82 Reed Street Albert Park VIC 3206,1400,4,2,0,House,fulli renov unbeat locat
163,-37.8300237,144.9695301,https://www.domain.com.au/2004-22-dorcas-street-southbank-vic-3006-14431488,2004/22 Dorcas Street Southbank VIC 3006,1400,2,2,2,Apartment / Unit / Flat,sleek stylish corner apart fulli furnish includ util
164,-37.8391119,145.0470766,https://www.domain.com.au/6-henham-street-hawthorn-east-vic-3123-16015910,6 Henham Street Hawthorn East VIC 3123,1395.0,4,3,3,House,best locat park
165,-37.926174,145.0103499,https://www.domain.com.au/29-canberra-grove-brighton-east-vic-3187-15994857,29 Canberra Grove Brighton East VIC 3187,1390.0,5,3,4,House,larg famili home pool
166,-37.9131627,145.0089079,https://www.domain.com.au/19b-grant-street-brighton-east-vic-3187-16028847,19B Grant Street Brighton East VIC 3187,1390.0,3,2,2,Townhouse,flexibl modern famili live
167,-37.8674715,145.0106943,https://www.domain.com.au/564b-inkerman-road-caulfield-north-vic-3161-16080232,564B Inkerman Road Caulfield North VIC 3161,1375,4,2,2,House,new light fill famili live heart
168,-37.8337808,145.0494452,https://www.domain.com.au/26-campbell-grove-hawthorn-east-vic-3123-16054461,26 Campbell Grove Hawthorn East VIC 3123,1360.0,1,1,1,Townhouse,luxuri privat execut home
169,-37.74617910000001,145.003678,https://www.domain.com.au/23-garnet-street-preston-vic-3072-16026292,23 Garnet Street Preston VIC 3072,1350,3,2,2,House,spaciou live friend larg famili enjoy
170,-37.8661624,144.993616,https://www.domain.com.au/8-7-nelson-street-balaclava-vic-3183-16009120,8/7 Nelson Street Balaclava VIC 3183,1350.0,4,2,2,Townhouse,perfect famili live amaz locat
171,-37.8046975,144.9575483,https://www.domain.com.au/49-o-connell-street-north-melbourne-vic-3051-15685646,49 O'Connell Street North Melbourne VIC 3051,1350,3,2,1,Townhouse,uniqu townhous queen townhous fulli furnish citi fring amaz view
172,-37.8411094,145.0126039,https://www.domain.com.au/3-553-toorak-road-toorak-vic-3142-15928839,3/553 Toorak Road Toorak VIC 3142,1350.0,4,2,1,Townhouse,consumm eleg space
173,-37.8616157,144.8851347,https://www.domain.com.au/27-anzac-crescent-williamstown-vic-3016-16066020,27 Anzac Crescent Williamstown VIC 3016,1350.0,1,1,0,Townhouse,superior live close everyth
174,-37.8429687,144.9922454,https://www.domain.com.au/22-phoenix-street-south-yarra-vic-3141-16054422,22 Phoenix Street South Yarra VIC 3141,1350,3,1,1,House,luxuri live heart south
175,-37.8552647,145.0911443,https://www.domain.com.au/39-bath-road-glen-iris-vic-3146-16018869,39 Bath Road Glen Iris VIC 3146,1350,4,2,2,House,exquisit town resid secur conveni
176,-37.8411174,145.0126789,https://www.domain.com.au/4-553-toorak-road-toorak-vic-3142-16050069,4/553 Toorak Road Toorak VIC 3142,1350,3,3,2,Townhouse,stun light fill resid
177,-37.84281300000001,144.953284,https://www.domain.com.au/54-o-grady-street-albert-park-vic-3206-16059651,54 O'Grady Street Albert Park VIC 3206,1350.0,4,3,3,House,low mainten modern
178,-37.8848382,145.0289911,https://www.domain.com.au/143b-bambra-road-caulfield-vic-3162-16007137,143B Bambra Road Caulfield VIC 3162,1350,4,3,2,Townhouse,entertain delight indoor outdoor versatil
179,-37.9149958,145.0078102,https://www.domain.com.au/6b-centre-road-brighton-east-vic-3187-15971915,6B Centre Road Brighton East VIC 3187,1345.0,3,2,2,Townhouse,light luxuri bespok design
180,-37.8108581,145.0513692,https://www.domain.com.au/38-alfred-street-kew-vic-3101-16038440,38 Alfred Street Kew VIC 3101,1325.0,4,3,3,House,larg famili home
181,-37.8259165,144.9705248,https://www.domain.com.au/907-250-st-kilda-road-southbank-vic-3006-16080575,907/250 St Kilda Road Southbank VIC 3006,1300,3,2,1,Apartment / Unit / Flat,impress perspect
182,-37.8426765,145.0288837,https://www.domain.com.au/3-power-avenue-toorak-vic-3142-16073768,3 Power Avenue Toorak VIC 3142,1300.0,5,2,3,House,charm doubl stori brick home charact
183,-37.8564218,144.9968344,https://www.domain.com.au/3-wise-close-windsor-vic-3181-16048317,3 Wise Close Windsor VIC 3181,1300.0,1,1,1,Townhouse,pleas click request inspect button regist next avail inspect
184,-37.8415434,145.0559965,https://www.domain.com.au/6-fairfield-avenue-camberwell-vic-3124-16071381,6 Fairfield Avenue Camberwell VIC 3124,1300,4,2,2,House,freshli paint luxuri famili home
185,-37.8650177,144.9746821,https://www.domain.com.au/2705-14-16-the-esplanade-st-kilda-vic-3182-16072154,2705/14-16 The Esplanade St Kilda VIC 3182,1300,3,2,2,Apartment / Unit / Flat,exclus short stay week minimum
186,-38.0037679,145.0841208,https://www.domain.com.au/510-main-street-mordialloc-vic-3195-16013425,510 Main Street Mordialloc VIC 3195,1300.0,2,1,2,House,rare size properti beach locat lifestyl
187,-37.8433944,144.9455756,https://www.domain.com.au/46-pickle-st-albert-park-vic-3206-7013075,46 Pickle St Albert Park VIC 3206,1300,4,2,2,House,hous eleg entertain
188,-37.9129792,145.1161421,https://www.domain.com.au/34-coane-street-oakleigh-east-vic-3166-12568276,34 Coane Street Oakleigh East VIC 3166,1300,4,2,3,House,four bedroom brand new townhous fulli furnish
189,-37.8870049,145.0524284,https://www.domain.com.au/87-mimosa-road-carnegie-vic-3163-16066432,87 Mimosa Road Carnegie VIC 3163,1300,4,3,2,House,furnish electr includ
190,-37.825817,144.9640414,https://www.domain.com.au/5505-18-hoff-boulevard-southbank-vic-3006-14946313,5505/18 Hoff Boulevard Southbank VIC 3006,1300,3,2,4,Apartment / Unit / Flat,live luxuri heart
191,-37.8446225,144.9501385,https://www.domain.com.au/74-barrett-street-albert-park-vic-3206-16052698,74 Barrett Street Albert Park VIC 3206,1300.0,4,2,0,House,superb singl level home
192,-37.84224409999999,145.0031184,https://www.domain.com.au/72-oban-street-south-yarra-vic-3141-16079620,72 Oban Street South Yarra VIC 3141,1300.0,4,2,0,House,sophist style south lifestyl
193,-37.869494,145.050005,https://www.domain.com.au/2b-brunel-street-malvern-east-vic-3145-16071822,2B Brunel Street Malvern East VIC 3145,1300.0,3,2,2,Townhouse,gloriou execut famili townhous
194,-37.9109577,145.0056098,https://www.domain.com.au/55-durrant-street-brighton-vic-3186-16058681,55 Durrant Street Brighton VIC 3186,1300,2,1,1,House,spaciou beauti
195,-37.8177291,145.0956466,https://www.domain.com.au/33-james-street-surrey-hills-vic-3127-16066040,33 James Street Surrey Hills VIC 3127,1300,6,4,5,House,spaciou famili home moment primari school
196,-37.7934088,144.9298053,https://www.domain.com.au/168-bellair-street-kensington-vic-3031-16036739,168 Bellair Street Kensington VIC 3031,1300,4,2,1,House,timeless grandeur heart
197,-37.931945,145.06066,https://www.domain.com.au/26a-bonny-street-bentleigh-east-vic-3165-16058750,26a Bonny Street Bentleigh East VIC 3165,1300.0,4,2,0,House,let
198,-37.8402383,144.9477835,https://www.domain.com.au/14-henderson-street-south-melbourne-vic-3205-16065791,14 Henderson Street South Melbourne VIC 3205,1300.0,4,3,3,House,picturesqu home
199,-37.9711151,145.0366339,https://www.domain.com.au/1a-erowal-street-beaumaris-vic-3193-16058467,1A Erowal Street Beaumaris VIC 3193,1300,4,1,2,Townhouse,short term leas month light bright load space doubl lug
200,-37.8265799,144.9894319,https://www.domain.com.au/54-wellington-street-cremorne-vic-3121-16064362,54 Wellington Street Cremorne VIC 3121,1300,2,1,1,Townhouse,ultim execut inner citi live
201,-37.9251006,144.997523,https://www.domain.com.au/87-were-street-brighton-vic-3186-15895978,87 Were Street Brighton VIC 3186,1300.0,4,3,2,House,charm famili home leafi local
202,-37.8150779,144.9851819,https://www.domain.com.au/162-george-street-east-melbourne-vic-3002-15094995,162 George Street East Melbourne VIC 3002,1300.0,2,1,1,Townhouse,prime posit heart east
203,-37.78135,144.9838569,https://www.domain.com.au/108-best-street-fitzroy-north-vic-3068-16054451,108 Best Street Fitzroy North VIC 3068,1300.0,3,1,1,House,uniqu resid
204,-37.8445733,145.0344809,https://www.domain.com.au/704-toorak-road-malvern-vic-3144-16033240,704 Toorak Road Malvern VIC 3144,1300,4,2,2,House,larg famili home prime locat
205,-37.9082865,145.0022237,https://www.domain.com.au/14-durrant-street-brighton-vic-3186-16051810,14 Durrant Street Brighton VIC 3186,1295.0,0,1,1,Townhouse,modern famili home close shop transport walk distanc shop school transport
206,-37.9937063,145.0334204,https://www.domain.com.au/425b-beach-road-beaumaris-vic-3193-16014933,425B Beach Road Beaumaris VIC 3193,1295.0,2,1,0,Townhouse,hideaway bay view
207,-37.8132781,144.9518268,https://www.domain.com.au/520-585-latrobe-street-melbourne-melbourne-vic-3000-11355962,"520/585 Latrobe Street, Melbourne Melbourne VIC 3000",1290,2,2,0,Apartment / Unit / Flat,luxuri famili apart leas
208,-37.956845,145.015297,https://www.domain.com.au/34-victoria-street-sandringham-vic-3191-16060121,34 Victoria Street Sandringham VIC 3191,1290.0,3,2,2,House,beauti present famili home first class address
209,-37.9800554,145.0665012,https://www.domain.com.au/1-109-collins-street-mentone-vic-3194-15990964,1/109 Collins Street Mentone VIC 3194,1280,3,3,2,Townhouse,new place per week
210,-37.8811067,145.0035052,https://www.domain.com.au/st-georges-rd-elsternwick-vic-3185-16004960,St Georges Rd Elsternwick VIC 3185,1280,4,2,2,House,delight singl storey bedroom home st rd
211,-37.8770358,145.009532,https://www.domain.com.au/16-morrice-street-caulfield-north-vic-3161-16063822,16 Morrice Street Caulfield North VIC 3161,1250,5,2,2,House,origin entertain grand proport
212,-37.8374374,144.9955647,https://www.domain.com.au/1701-649-chapel-street-south-yarra-vic-3141-15879263,1701/649 Chapel Street South Yarra VIC 3141,1250,3,2,2,Apartment / Unit / Flat,rare penthous heart south
213,-38.0243155,145.0992087,https://www.domain.com.au/5-bona-vista-avenue-aspendale-vic-3195-15836728,5 Bona Vista Avenue Aspendale VIC 3195,1250.0,3,2,2,House,seasid luxuri boutiqu build ocean view
214,-37.9030025,144.9976091,https://www.domain.com.au/35-st-james-park-drive-brighton-vic-3186-16030328,35 St James Park Drive Brighton VIC 3186,1250,3,2,1,House,lifestyl luxuri famili home pool mainten includ
215,-37.8847512,145.0360526,https://www.domain.com.au/4a-miriam-st-caulfield-vic-3162-16038430,4a Miriam St Caulfield VIC 3162,1250,4,2,3,Townhouse,brand new townhous prime locat
216,-37.9004638,145.0185507,https://www.domain.com.au/3-raymond-grv-caulfield-south-vic-3162-16062955,3 Raymond Grv Caulfield South VIC 3162,1250,2,1,1,House,art beauti modern brillianc
217,-37.8086912,145.0443635,https://www.domain.com.au/5-200-cotham-road-kew-vic-3101-16080273,5/200 Cotham Road Kew VIC 3101,1250.0,3,1,2,Townhouse,premium luxuri minimalist style prestigi ward
218,-37.85344,144.8734443,https://www.domain.com.au/28-walter-st-williamstown-north-vic-3016-14144044,28 Walter St Williamstown North VIC 3016,1250,3,1,0,House,dream live prime locat
219,-37.8932139,145.0398549,https://www.domain.com.au/35b-hawson-avenue-glen-huntly-vic-3163-15385741,35B Hawson Avenue Glen Huntly VIC 3163,1250,4,3,1,Townhouse,four bedroom studi bathroom stun townhous agent
220,-37.8500527,145.0789306,https://www.domain.com.au/14-straughan-st-glen-iris-vic-3146-16071220,14 Straughan St Glen Iris VIC 3146,1250.0,4,2,2,Apartment / Unit / Flat,room whole extend famili
221,-37.8420943,145.0675876,https://www.domain.com.au/2-15-orange-grove-camberwell-vic-3124-10926822,2/15 Orange Grove Camberwell VIC 3124,1250,6,4,3,Townhouse,locat heart
222,-37.9021797,144.999589,https://www.domain.com.au/5-budd-street-brighton-vic-3186-16063793,5 Budd Street Brighton VIC 3186,1250.0,3,1,1,House,eleg style stun pool
223,-38.0242147,145.0991843,https://www.domain.com.au/6-sophia-avenue-aspendale-vic-3195-15841211,6 Sophia Avenue Aspendale VIC 3195,1250.0,4,3,2,House,seasid luxuri boutiqu build ocean view
224,-37.7860602,145.003947,https://www.domain.com.au/62-the-esplanade-clifton-hill-vic-3068-16030931,62 The Esplanade Clifton Hill VIC 3068,1250.0,4,1,1,House,spaciou stun
225,-37.8500527,145.0789306,https://www.domain.com.au/14-straughan-st-glen-iris-vic-3146-16053776,14 Straughan St Glen Iris VIC 3146,1250.0,3,2,4,Apartment / Unit / Flat,room whole extend famili
226,-37.774681,144.9425789,https://www.domain.com.au/483-brunswick-road-brunswick-west-vic-3055-16060476,483 Brunswick Road Brunswick West VIC 3055,1250,4,1,0,House,stylish bedroom home first inspect sat rd regist interest
227,-37.7496784,145.154614,https://www.domain.com.au/71-newmans-rd-templestowe-vic-3106-16030050,71 Newmans Rd Templestowe VIC 3106,1250,4,2,2,House,enviabl acr contain eleg tranquil life style tenni court swim pool sauna
228,-37.9194749,145.0584466,https://www.domain.com.au/2-14-laurel-street-bentleigh-east-vic-3165-15830320,2/14 Laurel Street Bentleigh East VIC 3165,1250,2,2,1,Apartment / Unit / Flat,bedroom bathroom apart courtyard
229,-37.8702738,144.9902496,https://www.domain.com.au/204-154-chapel-street-st-kilda-vic-3182-15058693,204/154 Chapel Street St Kilda VIC 3182,1246,2,2,1,Apartment / Unit / Flat,fulli furnish stay includ util
230,-37.8702738,144.9902496,https://www.domain.com.au/501-154-chapel-street-st-kilda-vic-3182-15504156,501/154 Chapel Street St Kilda VIC 3182,1218,3,3,3,Apartment / Unit / Flat,fulli furnish stay includ util
231,-37.8674984,144.9923666,https://www.domain.com.au/11-alfred-street-balaclava-vic-3183-15977941,11 Alfred Street Balaclava VIC 3183,1211,4,2,2,House,charact fill bedroom unbeat locat
232,-37.8337288,144.9868936,https://www.domain.com.au/5-7-witchwood-cl-south-yarra-vic-3141-16052884,5-7 Witchwood Cl South Yarra VIC 3141,1200.0,4,2,1,House,domain precinct prestig premium posit
233,-37.8461618,145.0095858,https://www.domain.com.au/49-canterbury-road-toorak-vic-3142-16060114,49 Canterbury Road Toorak VIC 3142,1200,3,3,2,House,celebr space light timeless style
234,-37.9539247,145.0094279,https://www.domain.com.au/penthouse-203-6-penthouse-203-6-fernhill-rd-sandringham-vic-3191-16073046,"Penthouse 203, 6/Penthouse 203, 6 Fernhill Rd Sandringham VIC 3191",1200,3,2,4,Apartment / Unit / Flat,architect design penthous villag edg
235,-37.8889355,144.9981686,https://www.domain.com.au/5-airlie-street-brighton-vic-3186-16066747,5 Airlie Street Brighton VIC 3186,1200.0,4,2,0,House,renov excel
236,-37.804695,144.9746986,https://www.domain.com.au/8-royal-lane-fitzroy-vic-3065-7853784,8 Royal Lane Fitzroy VIC 3065,1200,4,3,2,Apartment / Unit / Flat,garden resid fulli furnish stay month
237,-37.797261,144.966529,https://www.domain.com.au/235-elgin-street-carlton-vic-3053-16068203,235 Elgin Street Carlton VIC 3053,1200,3,1,1,House,everi bit
238,-37.8166442,144.9635498,https://www.domain.com.au/325-collins-street-melbourne-vic-3000-14154581,325 Collins Street Melbourne VIC 3000,1200,3,2,0,Apartment / Unit / Flat,fulli furnish internet includ
239,-37.8369683,144.9964622,https://www.domain.com.au/3007-35-malcolm-street-south-yarra-vic-3141-14574763,3007/35 Malcolm Street South Yarra VIC 3141,1200,2,2,1,Apartment / Unit / Flat,fulli furnish stun vogu penthous apart fantast view top grade furnitur
240,-37.82589410000001,145.003764,https://www.domain.com.au/174-lord-street-richmond-vic-3121-15779509,174 Lord Street Richmond VIC 3121,1200,3,1,0,House,week furnitur includ
241,-37.8486956,145.0225762,https://www.domain.com.au/4-nareeb-court-toorak-vic-3142-16044504,4 Nareeb Court Toorak VIC 3142,1200.0,3,2,1,House,huge famili home prime locat month leas
242,-37.8362657,144.9849505,https://www.domain.com.au/4-67-walsh-street-south-yarra-vic-3141-16063567,4/67 Walsh Street South Yarra VIC 3141,1200,2,1,1,Apartment / Unit / Flat,famili size apart domain precinct
243,-37.8456882,144.9913498,https://www.domain.com.au/19-balmoral-place-south-yarra-vic-3141-16077000,19 Balmoral Place South Yarra VIC 3141,1200,1,1,1,House,indulg live premier locat
244,-37.835647,144.952214,https://www.domain.com.au/76-nelson-road-south-melbourne-vic-3205-16056089,76 Nelson Road South Melbourne VIC 3205,1200.0,4,3,2,House,spaciou famili resid
245,-37.75864809999999,144.9448586,https://www.domain.com.au/brunswick-west-vic-3055-15679865,Brunswick West VIC 3055,1200,3,1,1,House,close local amen public transport door
246,-37.8038348,145.0612018,https://www.domain.com.au/18-second-avenue-kew-vic-3101-15963969,18 Second Avenue Kew VIC 3101,1200.0,4,2,2,House,art delight park side pocket
247,-37.8040783,144.9654614,https://www.domain.com.au/25-26-little-cardigan-street-carlton-vic-3053-15895702,25/26 Little Cardigan Street Carlton VIC 3053,1200.0,3,2,1,Apartment / Unit / Flat,penthous live heart
248,-37.8418311,144.9365359,https://www.domain.com.au/405-65-beach-street-port-melbourne-vic-3207-16069853,405/65 Beach Street Port Melbourne VIC 3207,1200,3,2,0,Apartment / Unit / Flat,exclus lifestyl picturesqu outlook
249,-37.804695,144.9746986,https://www.domain.com.au/8-royal-lane-fitzroy-vic-3065-7853786,8 Royal Lane Fitzroy VIC 3065,1200,1,1,0,Apartment / Unit / Flat,garden resid fulli furnish stay month
250,-37.8362657,144.9849505,https://www.domain.com.au/4-67-walsh-street-south-yarra-vic-3141-16063567?topspot=1,4/67 Walsh Street South Yarra VIC 3141,1200,2,1,1,Apartment / Unit / Flat,famili size apart domain precinct
251,-37.7988884,144.9688269,https://www.domain.com.au/drummond-street-carlton-vic-3053-15992211,Drummond street Carlton VIC 3053,1200,4,2,0,House,excel locat walk cafe hospit univers garden
252,-37.806859,144.978375,https://www.domain.com.au/48-young-street-fitzroy-vic-3065-16027093,48 Young Street Fitzroy VIC 3065,1200,3,2,2,House,urban design prime
253,-37.8018598,145.1033385,https://www.domain.com.au/46a-yeneda-street-balwyn-north-vic-3104-16072786,46a Yeneda Street Balwyn North VIC 3104,1200,4,3,3,Townhouse,modern bliss sensat famili versatil
254,-37.7988277,144.9660145,https://www.domain.com.au/264-cardigan-street-carlton-vic-3053-16068111,264 Cardigan Street Carlton VIC 3053,1200,4,2,1,House,get readi someth big
255,-37.886093,145.0294647,https://www.domain.com.au/160-bambra-road-caulfield-north-vic-3161-16061853,160 Bambra Road Caulfield North VIC 3161,1200.0,4,2,2,House,perfect paradis await
256,-37.85229,144.997681,https://www.domain.com.au/502-283-high-street-prahran-vic-3181-16065163,502/283 High Street Prahran VIC 3181,1200.0,4,2,0,Apartment / Unit / Flat,let
257,-37.8685099,145.025714,https://www.domain.com.au/27-hawthorn-road-caulfield-north-vic-3161-16079292,27 Hawthorn Road Caulfield North VIC 3161,1200,5,2,2,House,state spectacular famili proport
258,-37.8167245,145.107648,https://www.domain.com.au/30-high-street-mont-albert-vic-3127-16060025,30 High Street Mont Albert VIC 3127,1200.0,4,2,0,House,eleg art tree line locat
259,-37.7449371,144.9244083,https://www.domain.com.au/25-amelia-ave-essendon-vic-3040-16071178,25 Amelia Ave Essendon VIC 3040,1200.0,4,2,2,House,contemporari famili luxuri
260,-37.8187333,145.0561208,https://www.domain.com.au/69-harcourt-street-hawthorn-east-vic-3123-16070841,69 Harcourt Street Hawthorn East VIC 3123,1200,3,2,2,House,captiv eleg famili home
261,-37.8077127,144.9450198,https://www.domain.com.au/29-ireland-street-west-melbourne-vic-3003-14992002,29 Ireland Street West Melbourne VIC 3003,1200,3,2,1,House,view
262,-37.8154048,144.9390916,https://www.domain.com.au/907-2-glenti-place-docklands-vic-3008-16065453,907/2 Glenti Place Docklands VIC 3008,1200,2,1,2,Apartment / Unit / Flat,stun apart
263,-37.8253627,145.1116991,https://www.domain.com.au/7-charles-street-surrey-hills-vic-3127-15083962,7 Charles Street Surrey Hills VIC 3127,1199,4,2,2,House,sumptuou style excel sought locat
264,-37.8253627,145.1116991,https://www.domain.com.au/7-charles-street-surrey-hills-vic-3127-16054146,7 Charles Street Surrey Hills VIC 3127,1199,6,3,1,House,sumptuou style excel sought locat
265,-37.9050458,145.0144825,https://www.domain.com.au/33-landcox-street-brighton-east-vic-3187-15885544,33 Landcox Street Brighton East VIC 3187,1195.0,4,2,0,House,beauti famili home pool
266,-37.8998011,145.0318408,https://www.domain.com.au/33-moore-street-caulfield-south-vic-3162-16032157,33 Moore Street Caulfield South VIC 3162,1195,3,2,3,House,magnific
267,-37.8386979,145.0418658,https://www.domain.com.au/464-auburn-road-hawthorn-vic-3122-15904505,464 Auburn Road Hawthorn VIC 3122,1195,3,3,3,House,desir brand new town hous larger bedroom hous
268,-37.8013904,144.9799,https://www.domain.com.au/2-219-napier-street-fitzroy-vic-3065-15287397,2/219 Napier Street Fitzroy VIC 3065,1190,2,1,1,House,fulli furnish avail immedi
269,-37.9274776,145.0276779,https://www.domain.com.au/7b-carr-street-brighton-east-vic-3187-16037629,7B Carr Street Brighton East VIC 3187,1190.0,3,2,2,Townhouse,near brand new three bedroom townhous
270,-37.8265362,145.0674704,https://www.domain.com.au/4-moorhouse-street-camberwell-vic-3124-15956661,4 Moorhouse Street Camberwell VIC 3124,1190,4,2,2,House,street
271,-37.7886513,144.9214028,https://www.domain.com.au/100-600-epsom-road-flemington-vic-3031-8672749,100/600 Epsom Road Flemington VIC 3031,1190,1,1,1,Apartment / Unit / Flat,furnish apart stay plu weekli servic cabl bill ever
272,-37.8383083,144.9499665,https://www.domain.com.au/16-tribe-street-south-melbourne-vic-3205-16032282,16 Tribe Street South Melbourne VIC 3205,1180.0,3,2,1,House,classic gem
273,-37.858828,144.9914546,https://www.domain.com.au/11-cintra-avenue-st-kilda-vic-3182-16022666,11 Cintra Avenue St Kilda VIC 3182,1175,3,2,3,House,classic home grade posit
274,-37.8418654,144.9507193,https://www.domain.com.au/234-bridport-west-street-albert-park-vic-3206-16010656,234 Bridport West Street Albert Park VIC 3206,1175,4,1,1,House,substanc villag lifestyl
275,-37.81263750000001,144.9693068,https://www.domain.com.au/110-133-bourke-street-melbourne-vic-3000-16011359,110/133 Bourke Street Melbourne VIC 3000,1155,1,1,0,Apartment / Unit / Flat,resid fulli furnish stay month includ util
276,-37.6450377,145.0010287,https://www.domain.com.au/1-35-wurundjeri-drive-epping-vic-3076-12126706,1/35 WURUNDJERI DRIVE Epping VIC 3076,1154,3,1,1,House,new offic warehous buy save big stamp duti
277,-37.82384,144.9624973,https://www.domain.com.au/626-1-queensbridge-square-southbank-vic-3006-16062104,626/1 Queensbridge Square Southbank VIC 3006,1150,1,1,1,Apartment / Unit / Flat,sumptuou freshwat place apart
278,-37.7857703,144.9756938,https://www.domain.com.au/459-station-street-carlton-north-vic-3054-16020614,459 Station Street Carlton North VIC 3054,1150,4,1,0,House,terrac ideal locat
279,-37.8072179,144.9623358,https://www.domain.com.au/4501-483-swanston-street-melbourne-vic-3000-14270971,4501/483 Swanston Street Melbourne VIC 3000,1150,4,3,0,Apartment / Unit / Flat,live high life
280,-37.8478925,145.0798488,https://www.domain.com.au/224-wattle-valley-road-camberwell-vic-3124-16057933,224 Wattle Valley Road Camberwell VIC 3124,1150,4,2,2,House,larg light versatil focus famili entertain
281,-37.8195617,144.9427409,https://www.domain.com.au/91-55-victoria-harbour-promenade-docklands-vic-3008-16074106,91/55 Victoria Harbour Promenade Docklands VIC 3008,1150.0,3,2,3,Apartment / Unit / Flat,dock stun waterfront secur apart
282,-37.8190688,144.9893458,https://www.domain.com.au/12-vale-street-east-melbourne-vic-3002-16070321,12 Vale Street East Melbourne VIC 3002,1150,1,1,1,House,charm bedroom bathroom home gorgeou park view
283,-37.8186065,145.0355789,https://www.domain.com.au/206-53-chrystobel-crescent-hawthorn-vic-3122-15960886,206/53 Chrystobel Crescent Hawthorn VIC 3122,1150.0,4,2,3,Apartment / Unit / Flat,luxuri lifestyl await
284,-37.8189594,144.9925736,https://www.domain.com.au/5a-mulberry-street-richmond-vic-3121-16046225,5A Mulberry Street Richmond VIC 3121,1150.0,4,2,2,House,light spaciou inner citi live
285,-37.8928982,144.9898622,https://www.domain.com.au/1-dawson-avenue-brighton-vic-3186-16026885,1 Dawson Avenue Brighton VIC 3186,1150.0,5,3,2,House,spaciou bedroom famili home pool bay
286,-37.799194,144.98827,https://www.domain.com.au/98-johnston-st-collingwood-vic-3066-16067212,98 Johnston St Collingwood VIC 3066,1150,2,1,2,House,could dream home
287,-37.9012582,145.0929966,https://www.domain.com.au/30-oxford-st-oakleigh-vic-3166-16043690,30 Oxford St Oakleigh VIC 3166,1150,4,2,4,House,perfectli locat
288,-37.8392126,145.0918332,https://www.domain.com.au/2-45-cornell-street-camberwell-vic-3124-16077007,2/45 Cornell Street Camberwell VIC 3124,1150.0,4,2,0,Townhouse,immacul townhous heart
289,-37.859964,145.026537,https://www.domain.com.au/33-barkly-ave-armadale-vic-3143-16064100,33 Barkly Ave Armadale VIC 3143,1150,2,1,1,House,famili home heart
290,-37.9731115,145.0144394,https://www.domain.com.au/278-beach-road-black-rock-vic-3193-16072626,278 Beach Road Black Rock VIC 3193,1150.0,4,2,2,House,huge beach front famili home
291,-37.8555377,145.0025626,https://www.domain.com.au/2a-gooch-street-prahran-vic-3181-15974105,2A Gooch Street Prahran VIC 3181,1150,4,3,2,Townhouse,luxuri bedroom execut townhous
292,-37.8027361,145.0982535,https://www.domain.com.au/3-ajana-street-balwyn-north-vic-3104-16063499,3 Ajana Street Balwyn North VIC 3104,1150,2,1,1,House,stun spaciou meticul present famili resid highli sought
293,-37.8739792,145.0100916,https://www.domain.com.au/108-6-st-aubins-avenue-caulfield-north-vic-3161-15957508,108/6 St Aubins Avenue Caulfield North VIC 3161,1150.0,4,2,3,Apartment / Unit / Flat,elit luxuri expans terrac
294,-37.8634596,145.025762,https://www.domain.com.au/21-valentine-grove-armadale-vic-3143-16040936,21 Valentine Grove Armadale VIC 3143,1150.0,4,2,0,House,architectur style context
295,-37.8301483,144.9696742,https://www.domain.com.au/2203-22-dorcas-street-southbank-vic-3006-16069485,2203/22 Dorcas Street Southbank VIC 3006,1150,2,2,1,Apartment / Unit / Flat,botan garden precinct fulli furnish bill includ
296,-37.788157,145.0904723,https://www.domain.com.au/35-walnut-road-balwyn-north-vic-3104-16080641,35 Walnut Road Balwyn North VIC 3104,1150,3,1,2,House,luxuri famili home high school zone
297,-37.9694931,145.0181917,https://www.domain.com.au/41b-arkaringa-crescent-black-rock-vic-3193-16052986,41B Arkaringa Crescent Black Rock VIC 3193,1150.0,3,2,2,Townhouse,leas
298,-37.8672595,144.9924419,https://www.domain.com.au/28-linton-street-balaclava-vic-3183-15765048,28 Linton Street Balaclava VIC 3183,1148,4,2,2,House,uniqu fulli furnish balaclava hous fabul garden set
299,-37.9133209,145.045421,https://www.domain.com.au/3b-malcolm-street-mckinnon-vic-3204-16050368,3B Malcolm Street McKinnon VIC 3204,1125,4,2,4,House,luxuri townhous school zone
300,-37.7750642,144.9908068,https://www.domain.com.au/4-gordon-grove-northcote-vic-3070-16033780,4 Gordon Grove Northcote VIC 3070,1100,3,2,2,House,luxuri bedroom townhous extra
301,-37.8399447,145.0536739,https://www.domain.com.au/6-myrniong-grove-hawthorn-east-vic-3123-16026704,6 Myrniong Grove Hawthorn East VIC 3123,1100,4,2,3,House,renov hous rent hawthorn east
302,-37.828351,145.0808249,https://www.domain.com.au/31-bryson-street-canterbury-vic-3126-16077797,31 Bryson Street Canterbury VIC 3126,1100.0,5,2,2,House,wonder size famili home freshli updat
303,-37.8000253,144.9664421,https://www.domain.com.au/22-dorrit-street-carlton-vic-3053-16031791,22 Dorrit Street Carlton VIC 3053,1100,1,1,1,House,stun three bedroom home perfect locat
304,-37.8997381,144.9886166,https://www.domain.com.au/2-361-st-kilda-st-brighton-vic-3186-16056674,2/361 St Kilda St Brighton VIC 3186,1100.0,3,2,2,House,pleas contact molli arrang inspect com
305,-37.83503899999999,144.95527,https://www.domain.com.au/6-emerald-street-south-melbourne-vic-3205-16077214,6 Emerald Street South Melbourne VIC 3205,1100.0,4,2,0,Townhouse,posit perfect
306,-37.9361604,145.0346316,https://www.domain.com.au/17-katoomba-street-hampton-east-vic-3188-16038452,17 Katoomba Street Hampton East VIC 3188,1100.0,4,2,1,House,famili favourit everyth
307,-37.8595107,145.0346749,https://www.domain.com.au/9-parkside-st-malvern-vic-3144-16068890,9 Parkside St Malvern VIC 3144,1100.0,4,2,2,House,period charm heart
308,-38.1959738,145.1265045,https://www.domain.com.au/39-mountain-avenue-frankston-south-vic-3199-15898232,39 Mountain Avenue Frankston South VIC 3199,1100,4,2,2,House,grand famili home
309,-37.9139707,145.0487015,https://www.domain.com.au/36b-windsor-avenue-mckinnon-vic-3204-16014841,36B Windsor Avenue McKinnon VIC 3204,1100.0,3,2,2,Townhouse,zone look stun bedroom home resid
310,-37.855997,145.00721,https://www.domain.com.au/49-highbury-grove-prahran-vic-3181-16056833,49 Highbury Grove Prahran VIC 3181,1100,1,1,1,House,stun bedroom home quiet pocket
311,-37.7704838,145.1265692,https://www.domain.com.au/6-hickory-street-templestowe-lower-vic-3107-16040725,6 Hickory Street Templestowe Lower VIC 3107,1100,4,3,2,House,beauti famili home expens spare
312,-37.8440772,145.0350695,https://www.domain.com.au/7-717-toorak-road-kooyong-vic-3144-16077474,7/717 Toorak Road Kooyong VIC 3144,1100.0,4,2,0,Apartment / Unit / Flat,sophist style
313,-37.8108631,145.002016,https://www.domain.com.au/318-victoria-street-richmond-vic-3121-15146722,318 Victoria Street Richmond VIC 3121,1100,3,2,2,House,two storey home heart rare
314,-37.8041246,144.8952361,https://www.domain.com.au/5-bute-street-seddon-vic-3011-16032374,5 Bute Street Seddon VIC 3011,1100,5,1,7,House,stun warehous convers mix use zone
315,-37.85277960000001,145.0435004,https://www.domain.com.au/2-1-creswick-street-glen-iris-vic-3146-15943598,2/1 Creswick Street Glen Iris VIC 3146,1100.0,3,3,2,Townhouse,modern townhous perfect locat
316,-37.8546269,145.0153947,https://www.domain.com.au/303-835-high-street-armadale-vic-3143-15994569,303/835 High Street Armadale VIC 3143,1100,2,2,2,Apartment / Unit / Flat,luxuri lifestyl live welcom
317,-37.828351,145.0808249,https://www.domain.com.au/31-bryson-street-canterbury-vic-3126-16077796,31 Bryson Street Canterbury VIC 3126,1100.0,3,2,4,House,wonder size famili home freshli updat
318,-37.8370147,144.9585055,https://www.domain.com.au/13-martin-street-south-melbourne-vic-3205-16068578,13 Martin Street South Melbourne VIC 3205,1100.0,2,1,0,House,renov exclus inner citi locat
319,-37.8232188,145.0334045,https://www.domain.com.au/302-1-cook-street-hawthorn-vic-3122-16067480,302/1 Cook Street Hawthorn VIC 3122,1100.0,3,2,1,Apartment / Unit / Flat,beauti design
320,-37.8842271,144.9899913,https://www.domain.com.au/11-wave-street-elwood-vic-3184-16072619,11 Wave Street Elwood VIC 3184,1100,5,2,2,House,bedroom solid brick home month leas avail
321,-37.7745285,144.9803088,https://www.domain.com.au/37-taylor-street-fitzroy-north-vic-3068-16061269,37 Taylor Street Fitzroy North VIC 3068,1100.0,3,2,2,Townhouse,execut resid premium local
322,-37.9341066,145.0040348,https://www.domain.com.au/4-3-littlewood-street-hampton-vic-3188-14650360,4/3 Littlewood Street Hampton VIC 3188,1100,3,2,2,House,flexibl term rental properti style pool
323,-37.8060449,144.9672391,https://www.domain.com.au/35-drummond-street-carlton-vic-3053-16078456,35 Drummond Street Carlton VIC 3053,1100.0,2,2,1,Apartment / Unit / Flat,style space st
324,-37.78078259999999,144.9754141,https://www.domain.com.au/651-canning-street-carlton-north-vic-3054-14624270,651 Canning Street Carlton North VIC 3054,1100,4,1,0,House,roomi terrac prize locat
325,-37.8232188,145.0334045,https://www.domain.com.au/302-1-cook-street-hawthorn-vic-3122-16025373,302/1 Cook Street Hawthorn VIC 3122,1100.0,4,2,2,Apartment / Unit / Flat,beauti design
326,-37.8222658,145.0694826,https://www.domain.com.au/2a-gwenda-avenue-canterbury-vic-3126-16079728,2A Gwenda Avenue Canterbury VIC 3126,1100,5,3,2,House,golden mile famili masterpiec
327,-37.8274344,144.9957153,https://www.domain.com.au/25-chestnut-street-richmond-vic-3121-16068056,25 Chestnut Street Richmond VIC 3121,1100,1,1,1,House,architectur design great space perfect lifestyl locat
328,-37.8226734,144.9665021,https://www.domain.com.au/2704-8-kavanagh-street-southbank-vic-3006-16051228,2704/8 Kavanagh Street Southbank VIC 3006,1100,2,2,1,Apartment / Unit / Flat,degre breathtak view across
329,-37.8629701,145.0143103,https://www.domain.com.au/16-3-wilks-street-caulfield-north-vic-3161-16009255,16/3 Wilks Street Caulfield North VIC 3161,1100.0,3,2,2,Townhouse,uniqu elit townhous pool facil flexibl leas term
330,-37.7915848,144.9221606,https://www.domain.com.au/33-stockmans-way-kensington-vic-3031-16067648,33 Stockmans Way Kensington VIC 3031,1100,3,2,2,House,stun spaciou famili home
331,-38.02399399999999,145.0996129,https://www.domain.com.au/2-109-nepean-highway-aspendale-vic-3195-16033606,2/109 Nepean Highway Aspendale VIC 3195,1100,4,3,4,Townhouse,modern townhous expans bay view
332,-37.8578253,145.0102208,https://www.domain.com.au/3-56-larnook-street-prahran-vic-3181-16064188,3/56 Larnook Street Prahran VIC 3181,1100.0,4,2,0,Townhouse,three bedroom split level townhous
333,-37.9802926,145.0276564,https://www.domain.com.au/28b-hornby-street-beaumaris-vic-3193-16039292,28b Hornby Street Beaumaris VIC 3193,1100.0,4,2,0,House,perfect grow famili
334,-37.8213341,144.9646982,https://www.domain.com.au/2810-7-riverside-quay-southbank-vic-3006-14489003,2810/7 Riverside Quay Southbank VIC 3006,1100,3,2,2,Apartment / Unit / Flat,level apart eureka tower unfurnish
335,-37.8560703,145.0101562,https://www.domain.com.au/6-10-lalbert-crescent-prahran-vic-3181-16064800,6/10 Lalbert Crescent Prahran VIC 3181,1100.0,4,2,0,House,prestig privat set
336,-37.9811405,145.0401434,https://www.domain.com.au/6-rosemary-rd-beaumaris-vic-3193-16003040,6 Rosemary Rd Beaumaris VIC 3193,1100.0,4,3,2,House,inspect pleas email com
337,-38.0033438,145.1032092,https://www.domain.com.au/19-reys-close-mordialloc-vic-3195-16015497,19 Reys Close Mordialloc VIC 3195,1100,4,3,2,House,prize sac posit
338,-37.8510145,144.994063,https://www.domain.com.au/2-anchor-place-prahran-vic-3181-16079263,2/ Anchor Place Prahran VIC 3181,1100,1,1,0,House,step chapel street
339,-37.8196806,144.9427053,https://www.domain.com.au/28-cumberland-street-docklands-vic-3008-16050264,28 Cumberland Street Docklands VIC 3008,1100,2,1,1,Apartment / Unit / Flat,spaciou apt harbour
340,-37.994951,145.0803029,https://www.domain.com.au/a-19-elm-grove-parkdale-vic-3195-16024864,A/19 Elm Grove Parkdale VIC 3195,1100.0,4,3,2,Townhouse,brand new luxuri live
341,-37.9087707,145.0510171,https://www.domain.com.au/1-28-walnut-street-ormond-vic-3204-16069637,1/28 Walnut Street Ormond VIC 3204,1100.0,4,2,4,Townhouse,ultra size luxuri home prime school zone
342,-37.84753,145.0687775,https://www.domain.com.au/1032-toorak-road-camberwell-vic-3124-16043783,1032 Toorak Road Camberwell VIC 3124,1100,5,2,2,House,magnific locat
343,-37.9266675,145.0126099,https://www.domain.com.au/39-comer-street-brighton-east-vic-3187-16078421,39 Comer Street Brighton East VIC 3187,1100.0,0,1,1,House,famili home pool sought
344,-37.7616163,145.048347,https://www.domain.com.au/12-melcombe-road-ivanhoe-vic-3079-15987229,12 Melcombe Road Ivanhoe VIC 3079,1100.0,3,1,2,House,old world charm meet contemporari versatil live
345,-37.8260485,144.956843,https://www.domain.com.au/1402-63-whiteman-street-southbank-vic-3006-16009660,1402/63 Whiteman Street Southbank VIC 3006,1099,2,2,2,Apartment / Unit / Flat,furnish inc util stay
346,-37.8131524,144.9547736,https://www.domain.com.au/24-300-king-st-melbourne-vic-3000-15383169,24/300 King St Melbourne VIC 3000,1099,3,2,1,Apartment / Unit / Flat,fulli furnish month leas apart
347,-37.8148892,144.9542038,https://www.domain.com.au/504-38-rose-lane-melbourne-vic-3000-15383175,504/38 Rose Lane Melbourne VIC 3000,1099,3,2,2,Apartment / Unit / Flat,fulli furnish month leas apart
348,-37.858551,144.892783,https://www.domain.com.au/131-ferguson-street-williamstown-vic-3016-15926916,131 Ferguson Street Williamstown VIC 3016,1097,4,1,3,House,famili home heart
349,-37.7649273,144.9748829,https://www.domain.com.au/168a-stewart-street-brunswick-east-vic-3057-16073430,168A Stewart Street Brunswick East VIC 3057,1095,3,2,2,Townhouse,bedroom bathroom studi
350,-37.9119646,145.0404235,https://www.domain.com.au/10-claire-street-mckinnon-vic-3204-16006854,10 Claire Street McKinnon VIC 3204,1095.0,2,1,1,House,great school zone everyth doorstep
351,-37.865311,144.9951032,https://www.domain.com.au/39-jervois-street-st-kilda-east-vic-3183-16058531,39 Jervois Street St Kilda East VIC 3183,1095.0,2,1,1,Townhouse,immacul bedroom resid huge studi area work home
352,-37.8013144,144.9763916,https://www.domain.com.au/5-55-moor-street-fitzroy-vic-3065-15325041,5/55 Moor Street Fitzroy VIC 3065,1090,2,1,1,Townhouse,warehous convers trim bed bath car space atrium
353,-37.8005616,144.9554189,https://www.domain.com.au/33-blackwood-street-north-melbourne-vic-3051-16081449,33 Blackwood street North Melbourne VIC 3051,1085,1,1,1,Apartment / Unit / Flat,execut luxuri north apart
354,-37.8219933,144.9621236,https://www.domain.com.au/1-freshwater-place-southbank-vic-3006-15503636,1 Freshwater Place Southbank VIC 3006,1085,1,1,1,Apartment / Unit / Flat,freshwat place fulli furnish stay month includ util
355,-37.812564,144.9628184,https://www.domain.com.au/110-250-elizabeth-street-melbourne-vic-3000-16011228,110/250 Elizabeth Street Melbourne VIC 3000,1085,1,1,0,Apartment / Unit / Flat,street resid fulli furnish stay month includ util
356,-37.8562821,145.0923718,https://www.domain.com.au/1-lillian-street-glen-iris-vic-3146-16068377,1 Lillian Street Glen Iris VIC 3146,1080.0,4,2,0,House,let
357,-37.8302942,144.9846734,https://www.domain.com.au/2-116-anderson-street-south-yarra-vic-3141-15963200,2/116 Anderson Street South Yarra VIC 3141,1075.0,3,2,2,Apartment / Unit / Flat,immacul apart across royal
358,-37.8657031,144.9939881,https://www.domain.com.au/295-inkerman-street-balaclava-vic-3183-16034828,295 Inkerman Street Balaclava VIC 3183,1050,2,1,1,Townhouse,brand new live larg studi citi view
359,-37.812564,144.9628184,https://www.domain.com.au/250-elizabeth-street-melbourne-vic-3000-9346440,250 Elizabeth Street Melbourne VIC 3000,1050,1,1,0,Apartment / Unit / Flat,st resid furnish stay inc util
360,-37.8397296,145.0003852,https://www.domain.com.au/7-371-toorak-road-south-yarra-vic-3141-16029652,7/371 Toorak Road South Yarra VIC 3141,1050,2,2,2,Apartment / Unit / Flat,renov half floor execut resid
361,-37.8704374,144.9905137,https://www.domain.com.au/4-nightingale-street-balaclava-vic-3183-16078992,4 Nightingale Street Balaclava VIC 3183,1050.0,2,1,2,House,bright level space sophist
362,-37.804306,144.976491,https://www.domain.com.au/148-fitzroy-street-fitzroy-vic-3065-15966578,148 Fitzroy Street Fitzroy VIC 3065,1050.0,2,2,1,House,prime locat
363,-37.9171405,145.0522015,https://www.domain.com.au/1c-may-street-bentleigh-east-vic-3165-16047532,1C May Street Bentleigh East VIC 3165,1050.0,4,3,2,Townhouse,beauti present four bedroom studi townhous school zone
364,-37.770763099999996,144.9934343,https://www.domain.com.au/27-hawthorn-road-northcote-vic-3070-16051293,27 Hawthorn Road Northcote VIC 3070,1050.0,3,1,1,House,beauti with high school zone garden includ
365,-37.8647861,145.0655536,https://www.domain.com.au/18-francis-crescent-glen-iris-vic-3146-10566702,18 Francis Crescent Glen Iris VIC 3146,1050,4,3,3,House,five bedroom
366,-37.8328613,145.0300245,https://www.domain.com.au/38-fordholm-road-hawthorn-vic-3122-16017034,38 Fordholm Road Hawthorn VIC 3122,1050.0,3,2,2,Townhouse,sun fill home locat exclus hawthorn hill precinct
367,-37.8369998,144.9931976,https://www.domain.com.au/1203-12-yarra-street-south-yarra-vic-3141-15553716,1203/12 Yarra Street South Yarra VIC 3141,1050,3,2,2,Apartment / Unit / Flat,seen apart like
368,-37.8415911,145.011796,https://www.domain.com.au/492-toorak-road-toorak-vic-3142-15773337,492 Toorak Road Toorak VIC 3142,1050.0,4,2,1,Apartment / Unit / Flat,amaz space
369,-37.829552,144.998683,https://www.domain.com.au/88-brighton-street-richmond-vic-3121-16057188,88 Brighton Street Richmond VIC 3121,1050.0,3,2,2,Townhouse,urban townhous
370,-37.8416749,145.0119857,https://www.domain.com.au/2-494-toorak-road-toorak-vic-3142-16000434,2/494 Toorak Road Toorak VIC 3142,1050.0,3,2,2,Apartment / Unit / Flat,ideal locat elev posit
371,-37.8038709,145.0368601,https://www.domain.com.au/9-derby-street-kew-vic-3101-16053120,9 Derby Street Kew VIC 3101,1050.0,3,1,2,House,pictur perfect
372,-37.8467709,145.1372227,https://www.domain.com.au/9-mahogany-avenue-burwood-east-vic-3151-16078286,9 Mahogany Avenue Burwood East VIC 3151,1050,2,1,1,House,brand new luxuri home
373,-37.8799019,145.0650367,https://www.domain.com.au/59-karma-avenue-malvern-east-vic-3145-16075814,59 Karma Avenue Malvern East VIC 3145,1050.0,4,2,0,House,stylish sun drench spaciou
374,-37.7934519,144.9448585,https://www.domain.com.au/487-dryburgh-street-north-melbourne-vic-3051-15945984,487 Dryburgh Street North Melbourne VIC 3051,1050.0,2,2,2,House,grand superb local
375,-37.9160927,145.0773784,https://www.domain.com.au/1b-forrest-street-bentleigh-east-vic-3165-16075252,1B Forrest Street Bentleigh East VIC 3165,1050,4,3,2,Townhouse,design home sensat locat
376,-37.7953063,144.9455898,https://www.domain.com.au/27-carroll-street-north-melbourne-vic-3051-15978398,27 Carroll Street North Melbourne VIC 3051,1050.0,3,2,1,House,north classic
377,-37.9771021,145.0485406,https://www.domain.com.au/25-spicer-street-beaumaris-vic-3193-16057734,25 Spicer Street Beaumaris VIC 3193,1050,4,1,2,House,charact fill renov home secondari zone
378,-37.7945171,145.0574876,https://www.domain.com.au/21-irymple-avenue-kew-east-vic-3102-16025020,21 Irymple Avenue Kew East VIC 3102,1050.0,4,2,2,House,superb
379,-37.840197,145.0125233,https://www.domain.com.au/2-7-lascelles-avenue-toorak-vic-3142-10406453,2/7 Lascelles Avenue Toorak VIC 3142,1050,3,1,1,Townhouse,art contemporari flair
380,-37.8102835,145.0722735,https://www.domain.com.au/14-hardwicke-street-balwyn-vic-3103-16044525,14 Hardwicke Street Balwyn VIC 3103,1050.0,4,2,2,House,spaciou famili home high school zone
381,-37.9223246,145.0063451,https://www.domain.com.au/5-lucas-street-brighton-east-vic-3187-16037643,5 Lucas Street Brighton East VIC 3187,1049.0,5,3,2,House,month leas
382,-37.8157632,145.0025928,https://www.domain.com.au/48-somerset-street-richmond-vic-3121-15999907,48 Somerset Street Richmond VIC 3121,1045,3,1,3,House,light fill spaciou famili home great locat
383,-37.852692,145.0425548,https://www.domain.com.au/288-tooronga-road-glen-iris-vic-3146-16034585,288 Tooronga Road Glen Iris VIC 3146,1043,2,1,1,Apartment / Unit / Flat,apart furnish inc util stay
384,-37.8728014,144.9829767,https://www.domain.com.au/22-dickens-street-elwood-vic-3184-15207324,22 Dickens Street Elwood VIC 3184,1040,4,2,2,House,fantast fulli furnish six bedroom hous premier locat
385,-37.8219262,144.962153,https://www.domain.com.au/1705-1-freshwater-place-southbank-vic-3006-16065015,1705/1 Freshwater Place Southbank VIC 3006,1036,1,1,1,Apartment / Unit / Flat,freshwat place furnish inc util stay
386,-37.8400381,145.0786708,https://www.domain.com.au/64-glyndon-road-camberwell-vic-3124-16063463,64 Glyndon Road Camberwell VIC 3124,1035,4,2,2,House,fabul home month leas offer
387,-37.8650204,144.9876674,https://www.domain.com.au/135-inkerman-street-st-kilda-vic-3182-8261230,135 Inkerman Street St Kilda VIC 3182,1029,2,1,1,Apartment / Unit / Flat,amp st resid amp fulli furnish stay month includ util amp amp
388,-37.91376,145.0188947,https://www.domain.com.au/9a-hornby-street-brighton-east-vic-3187-16042240,9A Hornby Street Brighton East VIC 3187,1025,3,2,2,House,four bedroom famili home east
389,-37.8176328,145.0719722,https://www.domain.com.au/62-wentworth-avenue-canterbury-vic-3126-16029180,62 Wentworth Avenue Canterbury VIC 3126,1025.0,4,2,0,House,prime locat golden mile
390,-37.8219262,144.962153,https://www.domain.com.au/1-freshwater-place-southbank-vic-3006-15800260,1 Freshwater Place Southbank VIC 3006,1015,2,2,1,Apartment / Unit / Flat,freshwat place fulli furnish stay month includ util
391,-37.8650204,144.9876674,https://www.domain.com.au/135-inkerman-street-st-kilda-vic-3182-8261231,135 Inkerman Street St Kilda VIC 3182,1015,3,2,1,Apartment / Unit / Flat,st resid fulli furnish stay month includ util
392,-37.8135752,144.9429943,https://www.domain.com.au/18-aquitania-way-docklands-vic-3008-9040170,18 Aquitania Way Docklands VIC 3008,1015,1,1,0,Apartment / Unit / Flat,furnish apart stay month plu weekli servic cabl bill ever
393,-37.814564,144.9522856,https://www.domain.com.au/260-spencer-st-melbourne-vic-3000-16004965,260 Spencer St Melbourne VIC 3000,1000,2,2,2,Apartment / Unit / Flat,brand new urban life
394,-37.8522278,145.0058732,https://www.domain.com.au/77-bayview-street-prahran-vic-3181-15993929,77 Bayview Street Prahran VIC 3181,1000.0,3,2,1,House,modern home premier posit
395,-37.951569,145.0376673,https://www.domain.com.au/5-donald-st-highett-vic-3190-16034826,5 Donald St Highett VIC 3190,1000.0,3,2,2,House,pleas contact molli arrang inspect com
396,-37.8145392,144.9414692,https://www.domain.com.au/10-saint-mangos-lane-docklands-vic-3008-16055792,10 Saint Mangos Lane Docklands VIC 3008,1000,3,2,1,Townhouse,ideal home busi saint lane dockland
397,-37.917702,145.031081,https://www.domain.com.au/264-centre-road-bentleigh-vic-3204-15825305,264 Centre Road Bentleigh VIC 3204,1000,4,2,2,House,shop dwell
398,-37.78562420000001,144.9756938,https://www.domain.com.au/465-station-street-carlton-north-vic-3054-16070972,465 Station Street Carlton North VIC 3054,1000.0,3,2,1,House,renov delight
399,-37.8007553,144.9689546,https://www.domain.com.au/4-22-grattan-street-carlton-vic-3053-15844687,4/22 Grattan Street Carlton VIC 3053,1000.0,4,1,0,Townhouse,garden set heart everyth
400,-37.8632364,145.0043962,https://www.domain.com.au/195a-alma-road-st-kilda-east-vic-3183-14527155,195A Alma Road St Kilda East VIC 3183,1000,4,3,2,House,privat home gener accommod garden includ
401,-37.7637067,144.9666417,https://www.domain.com.au/13-35-stewart-street-brunswick-vic-3056-16052842,13/35 Stewart Street Brunswick VIC 3056,1000.0,3,1,2,Townhouse,brand new townhous
402,-37.9123487,145.0594803,https://www.domain.com.au/36b-thomasina-street-bentleigh-east-vic-3165-16031812,36B Thomasina Street Bentleigh East VIC 3165,1000.0,0,1,1,Townhouse,brand new architect design zone
403,-37.8372095,144.9839347,https://www.domain.com.au/10-marne-street-south-yarra-vic-3141-15981508,10 Marne Street South Yarra VIC 3141,1000,3,3,2,House,moment royal botan garden avail end march
404,-37.9295135,145.041263,https://www.domain.com.au/12b-mckittrick-street-bentleigh-vic-3204-15977980,12B McKittrick Street Bentleigh VIC 3204,1000.0,4,2,2,Townhouse,unrival qualiti superior space
405,-38.0141624,145.1004835,https://www.domain.com.au/64-eulinga-avenue-aspendale-vic-3195-16030789,64 Eulinga Avenue Aspendale VIC 3195,1000,3,2,2,Townhouse,world class luxuri live parkland bay
406,-37.843228,144.993711,https://www.domain.com.au/20-medley-place-south-yarra-vic-3141-13342824,20 Medley Place South Yarra VIC 3141,1000,3,2,0,House,modern execut resid
407,-37.7486643,144.9713588,https://www.domain.com.au/66-walsh-street-coburg-vic-3058-15993508,66 Walsh Street Coburg VIC 3058,1000,4,2,2,House,meticul maintain great posit
408,-37.8145362,144.9424083,https://www.domain.com.au/302-30-newquay-promenade-docklands-vic-3008-16061690,302/30 Newquay Promenade Docklands VIC 3008,1000,2,2,1,Apartment / Unit / Flat,water view citi view best world
409,-37.8178283,144.9655259,https://www.domain.com.au/714-268-flinders-street-melbourne-vic-3000-15680124,714/268 Flinders Street Melbourne VIC 3000,1000,2,1,0,Apartment / Unit / Flat,bedroom unit near station fulli furnish
410,-37.8095971,144.9692227,https://www.domain.com.au/2610-265-exhibition-street-melbourne-vic-3000-16020450,2610/265 Exhibition Street Melbourne VIC 3000,1000.0,3,2,0,Apartment / Unit / Flat,stun apart
411,-37.7445849,144.8919691,https://www.domain.com.au/91a-deakin-street-essendon-vic-3040-14987178,91A Deakin Street Essendon VIC 3040,1000,3,2,2,Townhouse,sublim ultramodern townhous perfect
412,-37.7650865,145.1085745,https://www.domain.com.au/301a-thompsons-road-templestowe-lower-vic-3107-16072400,301A Thompsons Road Templestowe Lower VIC 3107,1000.0,3,3,2,House,live lap luxuri amid space style
413,-37.8440504,145.0036564,https://www.domain.com.au/7-225-williams-road-south-yarra-vic-3141-16053928,7/225 Williams Road South Yarra VIC 3141,1000,3,1,1,Apartment / Unit / Flat,stylish bedroom apart locat heart south
414,-37.8545376,144.891722,https://www.domain.com.au/148a-melbourne-road-williamstown-vic-3016-15911097,148a Melbourne Road Williamstown VIC 3016,1000,4,4,2,House,contemporari charm famili home enjoy
415,-37.805271,145.0611816,https://www.domain.com.au/6-1289-burke-road-kew-vic-3101-15999935,6/1289 Burke Road Kew VIC 3101,1000,4,2,2,Townhouse,sought suburb
416,-37.7650865,145.1085745,https://www.domain.com.au/301-thompsons-road-templestowe-lower-vic-3107-16072376,301 Thompsons Road Templestowe Lower VIC 3107,1000.0,4,3,3,House,live lap luxuri amid space style
417,-37.8112237,145.0174529,https://www.domain.com.au/5-blythswood-court-kew-vic-3101-16049471,5 Blythswood Court Kew VIC 3101,1000,4,2,2,House,central locat except famili home peac garden set
418,-37.9649515,145.0148699,https://www.domain.com.au/26-eliza-street-black-rock-vic-3193-16052453,26 Eliza Street Black Rock VIC 3193,1000.0,3,2,2,House,breathtak beach side resid
419,-37.8650543,145.0764306,https://www.domain.com.au/19-munro-avenue-ashburton-vic-3147-16045504,19 Munro Avenue Ashburton VIC 3147,1000,3,2,2,House,finest live
420,-37.7857799,145.0278286,https://www.domain.com.au/1-beckwith-avenue-alphington-vic-3078-15453613,1 Beckwith Avenue Alphington VIC 3078,1000,3,3,1,House,secur perfect home livabl suburb
421,-37.800255,144.969766,https://www.domain.com.au/275-rathdowne-street-carlton-vic-3053-9190479,275 Rathdowne Street Carlton VIC 3053,1000,3,1,0,House,superb bedroom storey terrac
422,-37.7758318,145.0971605,https://www.domain.com.au/25-millicent-avenue-bulleen-vic-3105-16078171,25 MILLICENT AVENUE Bulleen VIC 3105,1000,3,2,2,House,perfect famili home
423,-37.8364238,144.9958037,https://www.domain.com.au/1601-661-chapel-street-south-yarra-vic-3141-15303951,1601/661 Chapel Street South Yarra VIC 3141,1000,2,2,1,Apartment / Unit / Flat,luxuri live chapel st
424,-37.798389,144.9694441,https://www.domain.com.au/carlton-vic-3053-16069887,Carlton VIC 3053,1000,4,1,0,House,fulli furnish
425,-37.864,144.982,https://www.domain.com.au/st-kilda-vic-3182-15887145,St Kilda VIC 3182,1000,3,2,2,Apartment / Unit / Flat,histor build modern oasi cosmopolitan view
426,-37.9199591,145.0172807,https://www.domain.com.au/78-marriage-rd-brighton-east-vic-3187-16065745,78 Marriage Rd Brighton East VIC 3187,1000,2,1,2,House,qualiti famili home enviabl locat multipl live zone
427,-37.7897741,145.079037,https://www.domain.com.au/45-cityview-road-balwyn-north-vic-3104-15947092,45 Cityview Road Balwyn North VIC 3104,1000,4,2,2,House,ultim famili home high school zone
428,-37.8540976,145.0894203,https://www.domain.com.au/1-51-alfred-road-glen-iris-vic-3146-16071616,1/51 Alfred Road Glen Iris VIC 3146,1000,4,3,1,House,street front space style sophist
429,-37.7846717,144.9868498,https://www.domain.com.au/29-falconer-street-fitzroy-north-vic-3068-16033282,29 Falconer Street Fitzroy North VIC 3068,1000.0,3,1,1,House,eleg superb address
430,-37.8477259,145.0799897,https://www.domain.com.au/222-wattle-valley-rd-camberwell-vic-3124-16069348,222 Wattle Valley Rd Camberwell VIC 3124,1000.0,4,2,3,House,spaciou four bedroom home larg backyard
431,-37.7852216,145.0845908,https://www.domain.com.au/9-jason-crt-balwyn-north-vic-3104-16075224,9 Jason Crt Balwyn North VIC 3104,1000,6,4,2,House,two storey execut live
432,-37.834489,144.969154,https://www.domain.com.au/2-320-kings-way-south-melbourne-vic-3205-14740840,2/320 Kings Way South Melbourne VIC 3205,1000,3,2,2,Apartment / Unit / Flat,larg bedroom apart doubl garag
433,-37.8423598,145.0487992,https://www.domain.com.au/14-bethune-street-hawthorn-east-vic-3123-15673313,14 Bethune Street Hawthorn East VIC 3123,1000.0,4,2,2,House,ideal famili home
434,-37.9380905,145.0307564,https://www.domain.com.au/2a-leonard-street-hampton-east-vic-3188-16079976,2a Leonard Street Hampton East VIC 3188,1000,4,2,2,House,rare treat
435,-37.83866769999999,144.9871326,https://www.domain.com.au/402-42-ralston-street-south-yarra-vic-3141-16062823,402/42 Ralston Street South Yarra VIC 3141,1000,3,2,2,Apartment / Unit / Flat,ultim lifestyl locat
436,-37.781196,144.9418287,https://www.domain.com.au/97-oak-street-parkville-vic-3052-16022719,97 Oak Street Parkville VIC 3052,1000,5,1,1,House,famili home perfect locat
437,-37.8384283,144.9280851,https://www.domain.com.au/73-the-crescent-port-melbourne-vic-3207-16061763,73 The Crescent Port Melbourne VIC 3207,1000,1,1,1,Townhouse,good get
438,-37.8854006,144.9869901,https://www.domain.com.au/3-2a-vautier-street-elwood-vic-3184-16079224,3/2a Vautier Street Elwood VIC 3184,1000,2,1,2,Townhouse,locat space doubl garag updat
439,-37.9123487,145.0594803,https://www.domain.com.au/36a-thomasina-street-bentleigh-east-vic-3165-16031852,36a Thomasina Street Bentleigh East VIC 3165,1000.0,0,1,1,Townhouse,brand new architect design zone
440,-37.8482838,145.0165704,https://www.domain.com.au/1-nola-court-toorak-vic-3142-16069697,1 Nola Court Toorak VIC 3142,1000,5,3,2,House,privileg posit underst eleg
441,-37.8163542,145.1114625,https://www.domain.com.au/1-803-whitehorse-road-mont-albert-vic-3127-16051285,1/803 Whitehorse Road Mont Albert VIC 3127,1000,2,2,1,Townhouse,luxuri live finest
442,-37.7978058,145.0237402,https://www.domain.com.au/202-20-main-drive-kew-vic-3101-15868888,202/20 Main Drive Kew VIC 3101,999,4,4,2,Apartment / Unit / Flat,luxuri live
443,-37.80973530000001,144.9472135,https://www.domain.com.au/148-adderley-street-west-melbourne-vic-3003-11655649,148 Adderley Street West Melbourne VIC 3003,995,5,2,2,House,two storey terrac
444,-37.7730257,144.9624476,https://www.domain.com.au/24-1-3-dods-street-brunswick-vic-3056-15994875,24/1-3 Dods Street Brunswick VIC 3056,995,2,2,1,Apartment / Unit / Flat,finest opul personifi fridg wash machin dryer includ
445,-37.7547403,145.1316547,https://www.domain.com.au/107a-atkinson-street-templestowe-vic-3106-16058466,107A Atkinson Street Templestowe VIC 3106,995,4,2,2,House,near new luxuri home beyond compar walk everyth
446,-37.744497,144.9467081,https://www.domain.com.au/29-rose-street-coburg-vic-3058-16057509,29 Rose Street Coburg VIC 3058,995,4,2,0,House,beauti rose
447,-37.7963558,144.9295311,https://www.domain.com.au/25-wolseley-parade-kensington-vic-3031-16065752,25 Wolseley Parade Kensington VIC 3031,995,2,1,1,House,magnific live yesteryear
448,-37.8162625,145.0361341,https://www.domain.com.au/90-hawthorn-grove-hawthorn-vic-3122-16014807,90 Hawthorn Grove Hawthorn VIC 3122,995,3,2,2,Townhouse,everi sensat dimens ultra stylish level boutiqu resid
449,-37.827275,145.081127,https://www.domain.com.au/23a-bryson-street-canterbury-vic-3126-15976709,23A Bryson Street Canterbury VIC 3126,995,5,3,2,House,applic approv newli fulli renov bedroom
450,-37.8220902,145.0488853,https://www.domain.com.au/26-victoria-grove-hawthorn-east-vic-3123-16067088,26 Victoria Grove Hawthorn East VIC 3123,995,5,1,2,House,auburn villag lifestyl await
451,-37.8392924,145.0923933,https://www.domain.com.au/128-through-road-camberwell-vic-3124-16033923,128 Through Road Camberwell VIC 3124,995,4,2,0,House,charm leafi locat
452,-37.772174,144.973948,https://www.domain.com.au/14-methven-street-brunswick-east-vic-3057-15962832,14 Methven Street Brunswick East VIC 3057,995,4,1,1,House,fabul singl front home
453,-37.8162625,145.0361341,https://www.domain.com.au/90-hawthorn-grove-hawthorn-vic-3122-16067554,90 Hawthorn Grove Hawthorn VIC 3122,995,3,3,2,Townhouse,everi sensat dimens ultra stylish level boutiqu resid
454,-37.834665,144.981537,https://www.domain.com.au/7-112-millswyn-street-south-yarra-vic-3141-16080056,7/112 Millswyn Street South Yarra VIC 3141,995,3,2,2,Apartment / Unit / Flat,warehous convers unbeat locat
455,-37.8220902,145.0488853,https://www.domain.com.au/26-victoria-grove-hawthorn-east-vic-3123-16067087,26 Victoria Grove Hawthorn East VIC 3123,995,3,2,4,House,auburn villag lifestyl await
456,-37.7992839,145.0317898,https://www.domain.com.au/148-brougham-street-kew-vic-3101-15300836,148 Brougham Street Kew VIC 3101,995,6,6,8,House,refin eleg
457,-37.8550952,145.0780677,https://www.domain.com.au/28-celia-street-glen-iris-vic-3146-16032136,28 Celia Street Glen Iris VIC 3146,995,4,2,4,House,eleg famili home estat
458,-37.8106622,144.9890725,https://www.domain.com.au/158-simpson-street-east-melbourne-vic-3002-7100906,158 Simpson Street East Melbourne VIC 3002,995,1,1,1,Apartment / Unit / Flat,fulli furnish stay month includ util
459,-37.7741676,144.9920571,https://www.domain.com.au/17-19-aberdeen-grove-northcote-vic-3070-15961629,17-19 Aberdeen Grove Northcote VIC 3070,995,3,1,3,House,lifestyl
460,-37.9303903,145.0276133,https://www.domain.com.au/15-dumaresq-st-brighton-east-vic-3187-16037263,15 Dumaresq St Brighton East VIC 3187,995,4,3,2,House,desir park locat
461,-37.9296247,145.0251604,https://www.domain.com.au/24-studley-road-brighton-east-vic-3187-16043037,24 Studley Road Brighton East VIC 3187,995,4,3,2,House,famili live premier set
462,-37.7883643,144.9992446,https://www.domain.com.au/81-spensley-street-clifton-hill-vic-3068-16049425,81 Spensley Street Clifton Hill VIC 3068,990,3,1,0,House,tradit charm stylish contemporari eleg
463,-37.8277838,145.029314,https://www.domain.com.au/302-39-riversdale-road-hawthorn-vic-3122-15945003,302/39 Riversdale Road Hawthorn VIC 3122,990,3,2,2,Apartment / Unit / Flat,luxuri penthous citi view
464,-37.81013799999999,144.990052,https://www.domain.com.au/560-victoria-parade-east-melbourne-vic-3002-15930944,560 Victoria Parade East Melbourne VIC 3002,990,3,1,1,House,prestigi east locat
465,-37.8151727,145.011509,https://www.domain.com.au/14-david-street-richmond-vic-3121-14086539,14 David Street Richmond VIC 3121,990,2,2,1,Apartment / Unit / Flat,luxuri live apart fulli furnish free park
466,-37.7405597,144.934579,https://www.domain.com.au/3-thistle-street-pascoe-vale-south-vic-3044-16013800,3 Thistle Street Pascoe Vale South VIC 3044,990,5,2,2,House,qualiti size locat
467,-37.92607479999999,145.0808465,https://www.domain.com.au/13b-claronga-street-bentleigh-east-vic-3165-14884463,13B Claronga Street Bentleigh East VIC 3165,990,4,3,1,Townhouse,bedroom townhous east new
468,-37.9036566,145.0190954,https://www.domain.com.au/647-hawthorn-road-brighton-east-vic-3187-15563252,647 Hawthorn Road Brighton East VIC 3187,990,4,1,4,House,superbl present spaciou famili home
469,-37.776352,144.95291,https://www.domain.com.au/2-308-brunswick-road-brunswick-vic-3056-15915840,2/308 Brunswick Road Brunswick VIC 3056,990,3,3,1,Townhouse,brand new luxuri live
470,-37.823122,145.0758921,https://www.domain.com.au/135-canterbury-road-canterbury-vic-3126-15964704,135 Canterbury Road Canterbury VIC 3126,980,4,3,3,House,lifestyl locat solar heat ground pool
471,-37.774083,144.958206,https://www.domain.com.au/23-union-street-brunswick-vic-3056-16065515,23 Union Street Brunswick VIC 3056,980,4,1,1,Terrace,icon space grace
472,-37.9218231,145.0737812,https://www.domain.com.au/10a-mackie-road-bentleigh-east-vic-3165-16066650,10A Mackie Road Bentleigh East VIC 3165,980,4,2,2,Townhouse,brand new home open
473,-37.82606121944571,144.96225599537507,https://www.domain.com.au/619-1-freshwater-place-southbank-vic-3006-15501871,619/1 Freshwater Place  Southbank VIC 3006,980,1,1,1,Apartment / Unit / Flat,freshwat place fulli furnish stay month includ util
474,-37.786402,144.970509,https://www.domain.com.au/779-drummond-street-carlton-north-vic-3054-15963791,779 Drummond Street Carlton North VIC 3054,980,3,2,0,House,premier locat
475,-37.745801,144.893081,https://www.domain.com.au/97a-ogilvie-street-essendon-vic-3040-16069307,97A Ogilvie Street Essendon VIC 3040,980,4,3,0,Townhouse,cut edg luxuri famili flexibl
476,-37.7986958,145.1957386,https://www.domain.com.au/6-heads-road-donvale-vic-3111-16027997,6 Heads Road Donvale VIC 3111,980,4,2,0,House,impress famili resid
477,-37.80358,144.967673,https://www.domain.com.au/127-drummond-street-carlton-vic-3053-15801010,127 Drummond Street Carlton VIC 3053,980,4,1,0,House,place call home
478,-37.844978,144.997811,https://www.domain.com.au/4-palfreyman-street-south-yarra-vic-3141-16021762,4 Palfreyman Street South Yarra VIC 3141,980,3,2,2,House,open plan live fantast locat
479,-37.7973027,145.0702919,https://www.domain.com.au/1b-moody-street-balwyn-north-vic-3104-14926465,1B Moody Street Balwyn North VIC 3104,980,3,2,2,House,brand new hous dual school zone
480,-37.813751,144.9550317,https://www.domain.com.au/1602-270-king-street-melbourne-vic-3000-16053831,1602/270 King Street Melbourne VIC 3000,980,3,2,2,Apartment / Unit / Flat,penthous apart super size furnish three bedroom
481,-38.1008907,145.1314187,https://www.domain.com.au/27b-park-street-seaford-vic-3198-15933374,27B Park Street Seaford VIC 3198,975,4,2,1,Townhouse,execut home bath live primari suit privat privat garden gate reserv
482,-37.7804014,144.9651201,https://www.domain.com.au/73-holtom-street-west-princes-hill-vic-3054-15008416,73 Holtom Street West Princes Hill VIC 3054,975,3,2,1,House,stun princ hill home
483,-37.78685249999999,144.9989864,https://www.domain.com.au/42-o-grady-street-clifton-hill-vic-3068-16059929,42 O'Grady Street Clifton Hill VIC 3068,975,3,1,1,House,fantast period home highli sought locat
484,-37.9286085,144.9951343,https://www.domain.com.au/3-22b-south-road-brighton-vic-3186-16065921,3/22B South Road Brighton VIC 3186,975,5,3,2,Townhouse,finest townhous live
485,-37.8262731,145.0109095,https://www.domain.com.au/4a-queen-street-richmond-vic-3121-16076540,4A Queen Street Richmond VIC 3121,975,3,1,1,Townhouse,brand new modern hous great swan st train
486,-37.9112026,145.0168212,https://www.domain.com.au/1-2-howell-street-brighton-east-vic-3187-16070077,1/2 Howell Street Brighton East VIC 3187,970,4,3,2,Townhouse,brilliant live
487,-37.9103419,145.0696027,https://www.domain.com.au/16b-keswick-street-bentleigh-east-vic-3165-16064810,16B Keswick Street Bentleigh East VIC 3165,965,4,2,3,Townhouse,stun bedroom home school zone
488,-37.7908537,145.0026019,https://www.domain.com.au/107-field-street-clifton-hill-vic-3068-14758704,107 Field Street Clifton Hill VIC 3068,965,4,1,0,House,great famili home park view
489,-37.79872599999999,145.0786062,https://www.domain.com.au/2-14-sylvan-street-balwyn-north-vic-3104-15721267,2/14 Sylvan Street Balwyn North VIC 3104,960,3,2,2,Townhouse,minut walk high school
490,-37.9096141,145.0789293,https://www.domain.com.au/17a-julis-street-bentleigh-east-vic-3165-16076430,17A Julis Street Bentleigh East VIC 3165,952,3,2,2,House,brilliant home exact attent detail
491,-37.7282315,145.0120324,https://www.domain.com.au/32a-foch-street-reservoir-vic-3073-13842831,32A Foch Street Reservoir VIC 3073,950,4,3,2,House,perfect famili home
492,-37.8231131,144.9901798,https://www.domain.com.au/1-4-margaret-street-richmond-vic-3121-14321291,1/4 Margaret Street Richmond VIC 3121,950,0,1,0,Townhouse,contemporari level studi premier locat
493,-37.8239815,145.0045819,https://www.domain.com.au/121-lord-street-richmond-vic-3121-16064776,121 Lord Street Richmond VIC 3121,950,2,1,1,House,architectur design townhous fantast locat
494,-37.8586638,144.9006528,https://www.domain.com.au/4-james-street-williamstown-vic-3016-15925384,4 James Street Williamstown VIC 3016,950,3,2,2,House,low mainten live heart
495,-37.7578605,144.9766082,https://www.domain.com.au/14-lanark-street-brunswick-vic-3056-16070992,14 Lanark Street Brunswick VIC 3056,950,5,1,0,House,pictur perfect famili home
496,-37.8311742,145.0499045,https://www.domain.com.au/4-clive-road-hawthorn-east-vic-3123-16042107,4 Clive Road Hawthorn East VIC 3123,950,3,2,2,House,immens charm tree line street
497,-37.8350296,144.9759005,https://www.domain.com.au/71-73-bromby-street-south-yarra-vic-3141-16034151,71-73 Bromby Street South Yarra VIC 3141,950,3,2,3,House,larg charact home desir area
498,-37.8214915,145.0776584,https://www.domain.com.au/22-daphne-street-canterbury-vic-3126-15991858,22 Daphne Street Canterbury VIC 3126,950,4,2,2,House,beauti famili home prestig locat
499,-37.8665791,145.0165807,https://www.domain.com.au/24-orrong-crescent-caulfield-north-vic-3161-16063914,24 Orrong Crescent Caulfield North VIC 3161,950,2,1,2,House,larg famili home great locat
500,-37.8226328,145.0042913,https://www.domain.com.au/41-wall-street-richmond-vic-3121-15965544,41 Wall Street Richmond VIC 3121,950,3,2,2,House,impecc renov
501,-37.9263085,145.0780892,https://www.domain.com.au/6a-bradford-street-bentleigh-east-vic-3165-16081678,6A Bradford Street Bentleigh East VIC 3165,950,4,3,2,Townhouse,except qualiti elit seren
502,-37.8072443,144.9602814,https://www.domain.com.au/5310-500-elizabeth-street-melbourne-vic-3000-12869214,5310/500 Elizabeth Street Melbourne VIC 3000,950,3,2,1,Apartment / Unit / Flat,larg three bedroom apart amaz view
503,-37.8736601,145.1342532,https://www.domain.com.au/34a-st-albans-street-mount-waverley-vic-3149-14244269,34a St Albans Street Mount Waverley VIC 3149,950,4,3,2,House,mount famili home rent
504,-37.736186599999996,144.9077465,https://www.domain.com.au/33a-dublin-avenue-strathmore-vic-3041-16015990,33A Dublin Avenue Strathmore VIC 3041,950,5,3,2,House,wonder four bedroom townhous
505,-37.80042299999999,144.997448,https://www.domain.com.au/1-325-johnston-street-abbotsford-vic-3067-15871858,1/325 Johnston Street Abbotsford VIC 3067,950,4,2,2,House,uniqu bedroom doubl storey resid shop
506,-37.8428543,144.9866346,https://www.domain.com.au/15b-albion-street-south-yarra-vic-3141-16051257,15B Albion Street South Yarra VIC 3141,950,2,1,1,House,luxuri live prime locat
507,-37.8206034,144.9402399,https://www.domain.com.au/603-915-collins-street-docklands-vic-3008-16075010,603/915 Collins Street Docklands VIC 3008,950,3,2,0,Apartment / Unit / Flat,waterfront furnish bedroom apart dockland
508,-37.7949024,144.9281604,https://www.domain.com.au/19-henry-street-kensington-vic-3031-16050886,19 Henry Street Kensington VIC 3031,950,2,1,0,House,captiv bright spaciou
509,-37.8339303,145.0116742,https://www.domain.com.au/1-91-grange-road-toorak-vic-3142-16066436,1/91 Grange Road Toorak VIC 3142,950,3,2,2,House,charm home three bedroom three bathroom
510,-37.851271,144.98762,https://www.domain.com.au/60a-high-street-prahran-vic-3181-16002786,60A High Street Prahran VIC 3181,950,3,2,2,Townhouse,refurbish three bedroom townhous
511,-37.8145362,144.9424083,https://www.domain.com.au/306-30-newquay-promenade-docklands-vic-3008-16073641,306/30 Newquay Promenade Docklands VIC 3008,950,2,2,2,Apartment / Unit / Flat,fulli furnish three bedroom apart
512,-37.9304973,145.0233079,https://www.domain.com.au/7-arnold-rd-brighton-east-vic-3187-16073662,7 Arnold Rd Brighton East VIC 3187,950,3,2,2,House,famili live east
513,-37.776835,144.965714,https://www.domain.com.au/198-barkly-st-brunswick-vic-3056-16072946,198 Barkly St Brunswick VIC 3056,950,2,1,1,House,modern home fantast locat
514,-37.7989978,144.9788387,https://www.domain.com.au/302-270-young-street-fitzroy-vic-3065-16064911,302/270 Young Street Fitzroy VIC 3065,950,3,2,2,Apartment / Unit / Flat,inner citi sanctuari
515,-37.87307699999999,144.977474,https://www.domain.com.au/1b-wordsworth-street-st-kilda-vic-3182-16022625,1B Wordsworth Street St Kilda VIC 3182,950,3,5,2,Townhouse,prime locat across beach pet friendli
516,-37.8581525,144.8755072,https://www.domain.com.au/13-mcguire-crescent-williamstown-vic-3016-15957211,13 McGuire crescent Williamstown VIC 3016,950,3,2,1,House,focu famili excel
517,-37.7787649,145.0043236,https://www.domain.com.au/48-south-crescent-northcote-vic-3070-16048240,48 South Crescent Northcote VIC 3070,950,3,1,0,House,sun drench famili home
518,-37.852003,144.997803,https://www.domain.com.au/8-1-york-street-prahran-vic-3181-16013307,8/1 York Street Prahran VIC 3181,950,2,2,2,Townhouse,style sophist locat fulli furnish
519,-37.8120899,144.9835967,https://www.domain.com.au/203-150-clarendon-street-east-melbourne-vic-3002-12929838,203/150 Clarendon Street East Melbourne VIC 3002,950,2,2,1,Apartment / Unit / Flat,unrival live premier locat
520,-37.7953686,144.981008,https://www.domain.com.au/411-napier-street-fitzroy-vic-3065-15974973,411 Napier Street Fitzroy VIC 3065,950,3,1,0,House,bedroom bathroom famili home
521,-37.8962909,145.0063036,https://www.domain.com.au/53-elster-avenue-gardenvale-vic-3185-16078745,53 Elster Avenue Gardenvale VIC 3185,950,0,1,1,House,charm famili home fabul central locat
