,latitude,longitude,index,name,cost_text,Bed,Bath,Park,property_type,desc_head,desc,additional features,internal_area_sqkm,land_area_sqkm
0,-37.8059838,144.9632701,https://www.domain.com.au/unit-503-466-swanston-street-carlton-vic-3053-16066115,unit 503/466 Swanston Street Carlton VIC 3053,320,1,1,0,Apartment / Unit / Flat,Fully Furnished Studio Apartment in Swanston,,"['Alarm System', 'Built in wardrobes', 'Intercom']",,
1,-37.9475765,145.0509956,https://www.domain.com.au/61-rowans-road-highett-vic-3190-16080336,61 Rowans Road Highett VIC 3190,460,3,1,1,House,Quaint three bedroom in a great location!,,"['Split System Air Con', 'Split System Heating', 'Electric Cooking', 'Separate Laundry']",,
2,-37.9002294,144.7452156,https://www.domain.com.au/29-caspian-circuit-point-cook-vic-3030-16023583,29 Caspian Circuit Point Cook VIC 3030,430,3,2,2,House,Life at Your Fingertips,,,,
3,-37.7370336,145.2124356,https://www.domain.com.au/36-bradleys-lane-north-warrandyte-vic-3113-16038589,36 Bradleys Lane North Warrandyte VIC 3113,720,4,3,3,House,Bradleys Lane,,,,
4,-37.9840266,145.1782469,https://www.domain.com.au/12-isaac-road-keysborough-vic-3173-16020786,12 Isaac Road Keysborough VIC 3173,515,3,3,1,House,LUXURY SUBURBAN LIVING,,"['Built in wardrobes', 'Dishwasher']",,
5,-37.7908346,144.9310632,https://www.domain.com.au/16-mulgrave-street-kensington-vic-3031-16031288,16 Mulgrave Street Kensington VIC 3031,570,2,1,1,House,CHARMING CONTEMPORARY COTTAGE,** BOOK INSPECTION ONLINE **,,,
6,-37.985332,145.06078,https://www.domain.com.au/8-1-3-venice-street-mentone-vic-3194-13753978,8/1-3 Venice Street Mentone VIC 3194,450,2,2,1,Apartment / Unit / Flat,2 Bedroom unit in ideal lifestyle location!,"Situated only meters from Mentone shopping precinct and train station, this 2 bedroom unit is a tidy package and will tick all the boxes. Polished floor boards throughout and carpeted bedrooms, it offers a modern open plan living design. Living area large enough to incorporate lounge and dining setting, kitchen with dishwasher and plenty of cupboard space. Both bedrooms with built in robes. Modern",,,
7,-37.8072179,144.9623358,https://www.domain.com.au/4303-483-swanstone-street-melbourne-vic-3000-10444606,4303/483 Swanstone Street Melbourne VIC 3000,770,2,2,0,Apartment / Unit / Flat,Fully Furnished Two Beds Apartment,"this spacious FULLY FURNISHED 2 bedrooms Apartment is located right in the heart of Melbourne CBD with great view towards North East . Situated at the most convenient location, walk to Melbourne University, RMIT, Taylors Senior College, shops, cafe, restaurants, Melbourne Central Station and Victoria Market.
Free on site facilities includes fully-equipped gym, heated in ground pool, Spa/Sauna","['Air conditioning', 'North Facing', 'Furnished', 'Built in wardrobes', 'Balcony / Deck', 'Gym', 'Gas', 'Bath', 'Dishwasher', 'Tennis Court', 'Secure Parking', 'Swimming Pool']",,
8,-37.79385389999999,144.8904647,https://www.domain.com.au/33-macpherson-street-footscray-vic-3011-15936878,33 Macpherson Street Footscray VIC 3011,590,3,2,0,House,OPEN FOR INSPECTION ON SATURDAY 10TH SEPTEMBER AT 11:25AM - 11:40AM,,"['Air conditioning', 'Floorboards', 'Built in wardrobes']",,
9,-37.7855753,144.927268,https://www.domain.com.au/1-jezabeel-court-flemington-vic-3031-16077004,1 Jezabeel Court Flemington VIC 3031,650,3,2,2,House,LOW MAINTENANCE HOME & WALKING DISTANCE TO TRAIN,,"['Courtyard', 'Remote Garage', 'Built in wardrobes', 'Air conditioning', 'Ducted Heating', 'Split-System Air Conditioning', 'Split-System Heating']",,
10,-37.9046837,144.764663,https://www.domain.com.au/12-skyward-drive-point-cook-vic-3030-15992281,12 Skyward Drive Point Cook VIC 3030,,4,2,2,House,Relax resort living,,,,
11,-37.8125979,144.9604012,https://www.domain.com.au/612-408-lonsdale-street-melbourne-vic-3000-16079773,612/408 Lonsdale Street Melbourne VIC 3000,350,0,1,0,Apartment / Unit / Flat,"Private and Spacious 1 Bedroom, Furnished Apartment.",Manuel Flores,,,
12,-37.7476273,145.0026192,https://www.domain.com.au/21-122-high-street-preston-vic-3072-16080941,21/122 High Street Preston VIC 3072,450,2,1,2,Apartment / Unit / Flat,Boutique 2 Bedroom Apartment in Preston!,,,,
13,-37.7069935,145.0045152,https://www.domain.com.au/2-47-hobbs-crescent-reservoir-vic-3073-16072073,2/47 Hobbs Crescent Reservoir VIC 3073,350,3,1,1,House,"Modern, Brick Unit",,,,
14,-37.7822945,144.97223,https://www.domain.com.au/147-pigdon-street-carlton-north-vic-3054-15996920,147 Pigdon Street Carlton North VIC 3054,850,6,2,0,House,CARLTON NORTH THE PLACE TO BE,"This picture perfect Victorian home is close to schools, tram and cosmopolitan shopping strips with restaurants, cafes, banks and supermarkets. North facing this home boasts 3 large bedrooms 2 with built in robes, formal lounge with lovely gas fireplace, kitchen with dining area and gas cooking and dishwasher, large main bathroom with bath and shower, internal laundry and a glorious sunny brick",,,
15,-37.772964,144.880576,https://www.domain.com.au/102-gatehouse-place-maribyrnong-vic-3032-16053757,102 Gatehouse Place Maribyrnong VIC 3032,395,2,2,1,Apartment / Unit / Flat,APPLICATION LINK: https://app.snug.com/apply/barryplantessendon,,"['Split System Air Con', 'Split System Heating', 'Balcony / Deck', 'Built in wardrobes', 'Dishwasher', 'Floorboards', 'Remote Garage', 'Secure Parking']",,
16,-37.6833557,145.0665443,https://www.domain.com.au/4-pasture-place-bundoora-vic-3083-15944023,4 Pasture Place Bundoora VIC 3083,460,3,1,4,Townhouse,Nice 3 Bedroom Townhouse In Bundoora,,,,
17,-37.959843,145.2019942,https://www.domain.com.au/33-kandra-street-dandenong-north-vic-3175-16076465,33 Kandra Street Dandenong North VIC 3175,550,3,2,4,House,Four bedroom updated family home !,"Melvic Real Esate is pleased to present 33 kandra street, Dandenong North, the perfect property for tenants wanting to stay close to a whole range of amenities including Rosewood Downs Primary, Nazareth College, Mulgrave Primary, St Elizabeth Parish School, public transport, parks, Waverley Gardens Shopping Centre, Eastlink, and much more.","['Fully fenced', 'Dishwasher', 'Rumpus Room', 'Ducted Heating']",,
18,-37.7628335,144.8870259,https://www.domain.com.au/44-dale-street-maribyrnong-vic-3032-15959316,44 Dale Street Maribyrnong VIC 3032,500,3,2,2,House,COMFORTABLE FAMILY HOME,,,,
19,-37.8993167,145.052826,https://www.domain.com.au/76b-oakleigh-road-carnegie-vic-3163-16053547,76B Oakleigh Road Carnegie VIC 3163,900,2,1,1,Apartment / Unit / Flat,BRAND NEW 4 BEDROOM TOWNHOUSE IN CARNEGIE,Leasing Team,,,
20,-37.6266466,145.0785951,https://www.domain.com.au/12-topaz-grove-south-morang-vic-3752-16079961,12 Topaz Grove South Morang VIC 3752,550,4,2,2,House,Contemporary Family Living at Its Best,,,,
21,-37.9245289,145.0773569,https://www.domain.com.au/2-26-patricia-street-bentleigh-east-vic-3165-16067339,2/26 Patricia Street Bentleigh East VIC 3165,595,4,2,2,Apartment / Unit / Flat,"Sun Filled, Flawless, Modern Low Maintenance Private Retreat *Open Saturday 10 September 10.30-10.45am*",Lauren Muller,,,
22,-37.8815547,144.747168,https://www.domain.com.au/28-copeland-crescent-point-cook-vic-3030-15541486,28 Copeland Crescent Point Cook VIC 3030,450,4,2,2,House,Spacious family home,"Spacious 3 bedroom family home. Main bedroom with walk-in robe &amp; plantation shutters, 2 large bedrooms with built-in robes, kitchen with stainless steel appliances including dishwasher, open plan living, formal living area with access to landscaped gardens, large study, alfresco outdoor area perfect for entertaining. Main bathroom with bath, evaporative cooling, ducted heating, double garage &amp; low","['Air conditioning', 'Built in wardrobes', 'Heating', 'Dishwasher']",,
23,-37.6965366,144.9332888,https://www.domain.com.au/2-38-view-street-glenroy-vic-3046-15719961,2/38 View Street Glenroy VIC 3046,430,3,2,1,Townhouse,INSPECT & MOVE IN NOW,,,,
24,-37.864286,145.050611,https://www.domain.com.au/1-152-burke-road-glen-iris-vic-3146-13641967,1/152 Burke Road Glen Iris VIC 3146,950,5,2,2,House,Grandeur and Class - VIDEO WALKTHROUGH AVAILABLE,"*TO REGISTER FOR AN INSPECTION, SIMPLY CLICK ON BOOK INSPECTION OR EMAIL AGENT *",,,
25,-37.7281646,144.7750006,https://www.domain.com.au/9-fairmont-street-kings-park-vic-3021-16055530,9 Fairmont Street Kings Park VIC 3021,330,3,1,0,House,House for lease!,"Westo real estate presents 9 Fairmont Street in Kings Park which is conveniently located within minutes' drive to Schools, Public Transport and Shopping centres. It has easy freeway access and is also within a short driving distance to the Sunshine hospital. 
The property has 3 decent size bedrooms, a kitchen and meals area and a separate living/lounge room. 
An additional feature is that the",,,
26,-37.7465364,144.8148021,https://www.domain.com.au/14-horham-court-st-albans-vic-3021-16059509,14 Horham Court St Albans VIC 3021,400,3,1,2,House,4 Bedroom Family home,,,,
27,-37.7442692,144.9959997,https://www.domain.com.au/12-446-bell-street-preston-vic-3072-15184478,12/446 BELL Street Preston VIC 3072,410,2,1,1,Apartment / Unit / Flat,INSPECT AND MOVE IN NOW,,,,
28,-38.1385731,145.1293404,https://www.domain.com.au/1-39-lewis-street-frankston-vic-3199-16072933,1/39 Lewis Street Frankston VIC 3199,365,3,1,3,Apartment / Unit / Flat,Modern 2 Bed Unit in Ideal Location,,,,
29,-37.8423598,145.0487992,https://www.domain.com.au/14-bethune-street-hawthorn-east-vic-3123-15673313,14 Bethune Street Hawthorn East VIC 3123,1000.0,4,2,2,House,The Ideal Family Home!,,,,
30,-37.7203817,144.9332458,https://www.domain.com.au/102-northumberland-road-pascoe-vale-vic-3044-16074192,102 Northumberland Road Pascoe Vale VIC 3044,400,3,1,3,House,Home sweet home with spacious living,,,,
31,-37.8616372,144.8954261,https://www.domain.com.au/2-42-44-verdon-street-williamstown-vic-3016-14426081,2/42-44 Verdon Street Williamstown VIC 3016,400,2,1,1,Apartment / Unit / Flat,STUNNING GROUND FLOOR APARTMENT,"This stunning, fully renovated apartment will thrill you upon inspection. 
Located in one of Williamstown's premier tree-lined streets, only minutes from the train station, shops, cafes and all the other lifestyle amenities this wonderful suburb has to offer. 
Beautifully grained timber flooring throughout, stylish kitchen and bathroom with high-end quality fixtures and fittings, stainless steel",,,
32,-37.8212327,144.8929363,https://www.domain.com.au/4-64-francis-street-yarraville-vic-3013-15991202,4/64 Francis Street Yarraville VIC 3013,265,2,1,1,Apartment / Unit / Flat,Walking distance to the Village!!,,"['Heating', 'Built in wardrobes', 'Close to transport', 'Close to shops', 'Close to schools']",,
33,-37.8610595,144.9732089,https://www.domain.com.au/102-363-beaconsfield-parade-st-kilda-west-vic-3182-16061105,102/363 Beaconsfield Parade St Kilda West VIC 3182,340,2,1,1,Apartment / Unit / Flat,Seaside Living at its Best!,,"['Air conditioning', 'Built in wardrobes']",,
34,-37.8017087,145.0351102,https://www.domain.com.au/g04-48-pakington-street-kew-vic-3101-16067442,G04/48 Pakington Street Kew VIC 3101,485,2,1,1,Apartment / Unit / Flat,Bright and modern apartment in good location,,"['Intercom', 'Balcony / Deck', 'Dishwasher']",,
35,-37.788602,144.8926139,https://www.domain.com.au/10-27-eldridge-street-footscray-vic-3011-14723450,10/27 Eldridge Street Footscray VIC 3011,280,2,1,1,Apartment / Unit / Flat,Convienent Locale,,"['INSIDE:', 'Built in wardrobes']",,
36,-37.7885221,144.864685,https://www.domain.com.au/3-98-ashley-street-maidstone-vic-3012-16061480,3/98 Ashley Street Maidstone VIC 3012,480,3,1,1,House,"""When Location and Style meets Affordability""",,,,
37,-37.899044,145.077172,https://www.domain.com.au/110-kangaroo-road-hughesdale-vic-3166-16054209,110 Kangaroo Road Hughesdale VIC 3166,630,3,3,1,House,Exquisitely Renovated,,"['INSIDE:', 'Study', 'Built in wardrobes', 'Dishwasher', 'Ducted Heating']",,
38,-37.848697,144.99787,https://www.domain.com.au/96-bendigo-street-prahran-vic-3181-16020049,96 Bendigo Street Prahran VIC 3181,555,3,1,0,House,Spacious Three Bedroom Home,"This spacious three bedroom home is in an amazing location, close to transport, shops, Chapel Street, and restaurants and has just been freshly painted with new carpet &amp; blinds throughout. It features:
- Three spacious bedrooms
- Open plan living area with split system air conditioner 
- Renovated kitchen with ample of storage
- Sparkling tiled bathroom with shower over bath
- Separate laundry",,,
39,-37.7554968,145.0276779,https://www.domain.com.au/2-68-dundas-street-thornbury-vic-3071-16068676,2/68 Dundas Street Thornbury VIC 3071,300,1,1,1,Apartment / Unit / Flat,CONVENIENTLY LOCATED...,***PLEASE REGISTER ONLINE PRIOR TO INSPECTION***,,,
40,-37.7614589,144.9737037,https://www.domain.com.au/31-3-holmes-street-brunswick-east-vic-3057-12486672,31/3 Holmes Street Brunswick East VIC 3057,265,1,1,1,Apartment / Unit / Flat,Available NOW  Student Only Accommodation,,,,
41,-37.7442869,144.7664588,https://www.domain.com.au/9-fernhill-court-albanvale-vic-3021-16045538,9 Fernhill Court Albanvale VIC 3021,370,3,1,0,House,Great Family Home,,['Ensuite'],,
42,-37.9275311,145.1252761,https://www.domain.com.au/199-carinish-road-clayton-vic-3168-16026860,199 Carinish Road Clayton VIC 3168,420,3,1,4,House,"Key Location, Close To Station",,,,
43,-37.8613684,145.0192383,https://www.domain.com.au/2-50a-wattletree-road-armadale-vic-3143-15281156,2/50A Wattletree Road Armadale VIC 3143,395,3,1,1,Apartment / Unit / Flat,Spacious two bedroom apartment in great location,,"['Car Accom: Single Off-Street Parking', 'Pool/Spa Count: 0']",,
44,-37.80875,144.96143,https://www.domain.com.au/1904-60-a-beckett-street-melbourne-vic-3000-12991464,1904/60 A?Beckett Street Melbourne VIC 3000,700,0,0,1,Apartment / Unit / Flat,2 bedroom apartment in Avant building next to RMIT,"This wonderful apartment is just next to RMIT
2 bedrooms, 1 bathroom, with great city views;
Quality fixtures and fitting, with dishwasher, timber floor, aircons etc.;
Whole floor residence facilities, including Pool, gym, spa, steam room, 2 gaming rooms, BBQ, sundeck, mini cinema, roof top gardens etc. 
For inspection please call Sam 0433 145 188.","['Air conditioning', 'Built in wardrobes', 'Close to schools', 'Close to shops', 'Close to transport', 'Floorboards', 'Formal Lounge', 'Swimming Pool']",,
45,-37.9159403,145.0226836,https://www.domain.com.au/2b-parklands-crescent-brighton-east-vic-3187-16052406,2B Parklands Crescent Brighton East VIC 3187,1400,4,2,1,Townhouse,Private luxury residence,,"['Air conditioning', 'Broadband internet access', 'Built in wardrobes', 'Balcony / Deck', 'Dishwasher', 'Heating', 'Floorboards', 'Fully fenced', 'Gas Hot Water Service', 'Intercom', 'Outdoor Entertaining', 'Remote Garage', 'Rumpus Room', 'Secure Parking', 'Study', 'Ensuite', 'Pets Allowed']",,
46,-37.8330903,145.0331881,https://www.domain.com.au/493-glenferrie-road-hawthorn-vic-3122-16030008,493 Glenferrie Road Hawthorn VIC 3122,3500,2,1,1,House,Stunning Victorian Residence - Private and Convenient,Damian Gattone,"['Air conditioning', 'Heating', 'Close to transport', 'Close to shops', 'Close to schools', 'Ensuite', 'Security Access', 'Prestige Homes', 'Floorboards', 'Fully fenced', 'Secure Parking', 'Window Treatments', 'Broadband Internet Available', 'Dishwasher']",,
47,-37.8215686,145.1472195,https://www.domain.com.au/50-laburnum-street-blackburn-vic-3130-16062273,50 Laburnum Street Blackburn VIC 3130,685,4,3,2,House,Instant Family Success in Prime Pocket,,,,
48,-37.86894,145.1421576,https://www.domain.com.au/2-175-lawrence-road-mount-waverley-vic-3149-16062544,2/175 Lawrence Road Mount Waverley VIC 3149,460,3,1,1,Apartment / Unit / Flat,Conveniently located in the heart of Mount Waverley and within the MWSC catchment.,,"['Air conditioning', 'Built in wardrobes', 'Secure Parking']",,
49,-37.78865,145.131048,https://www.domain.com.au/310-8-hepburn-road-doncaster-vic-3108-15978602,310/8 Hepburn Road Doncaster VIC 3108,610,4,3,2,Apartment / Unit / Flat,Three Bedrooms Apartment in Central Doncaster!!,,"['INSIDE:', 'Built in wardrobes', 'OUTSIDE:', 'Remote Garage']",,
50,-37.9526095,145.0491222,https://www.domain.com.au/2-1173-nepean-highway-highett-vic-3190-16068776,2/1173 Nepean Highway Highett VIC 3190,495,2,2,1,Apartment / Unit / Flat,Spacious and Private with Double Garage,,,,
51,-37.9218363,144.9971144,https://www.domain.com.au/9-exon-street-brighton-vic-3186-16020106,9 Exon Street Brighton VIC 3186,1850.0,4,2,4,House,SPACIOUS FAMILY ENTERTAINER,You MUST register for an inspection and we ask that you also confirm your attendance. AN AGENT WILL NOT BE PRESENT IF YOU DO NOT REGISTER and CONFIRM. Your consideration and co-operation is appreciated.,,,
52,-37.7824879,145.1645537,https://www.domain.com.au/28-1-25-bellevue-avenue-doncaster-east-vic-3109-16060900,28/1-25 Bellevue Avenue Doncaster East VIC 3109,380,2,2,1,Apartment / Unit / Flat,This Is Your Lucky Find!,,,,
53,-37.8699265,144.9973881,https://www.domain.com.au/8-2b-hawsleigh-ave-st-kilda-east-vic-3183-15619644,8/2b Hawsleigh Ave St Kilda East VIC 3183,,2,1,1,Apartment / Unit / Flat,Charming garden view 2br furnished Art Deco,Phone Enquiry Property ID: 1492 (Quote when call or text),"['Balcony', 'Floorboards', 'Dishwasher', 'Ducted Heating']",,
54,-37.8134924,144.9673838,https://www.domain.com.au/207-18-russell-place-melbourne-vic-3000-15831769,207/18 Russell Place Melbourne VIC 3000,485,1,1,0,Apartment / Unit / Flat,Furnished One Bedroom Apartment Available from 21/09,,['Furnished'],,
55,-37.8107954,144.9683039,https://www.domain.com.au/148-139-lonsdale-street-melbourne-vic-3000-14571757,148/139 Lonsdale Street Melbourne VIC 3000,350,2,1,0,Apartment / Unit / Flat,2 Bedroom on Lonsdale Street - Be Close To Everything!,,,,
56,-37.797357,145.168619,https://www.domain.com.au/1-8-paula-crescent-doncaster-east-vic-3109-16067947,1/8 Paula Crescent Doncaster East VIC 3109,460,3,1,0,Apartment / Unit / Flat,Single Level Unit in Doncaster East!,,,,
57,-37.9304973,145.0233079,https://www.domain.com.au/7-arnold-rd-brighton-east-vic-3187-16073662,7 Arnold Rd Brighton East VIC 3187,950,3,2,2,House,Family Living in Brighton's East!,,,,
58,-37.7280035,145.0323495,https://www.domain.com.au/3-33-nisbett-street-reservoir-vic-3073-15711007,3/33 Nisbett Street Reservoir VIC 3073,360,2,1,1,Apartment / Unit / Flat,Low Maintenance Unit!,,,,
59,-37.7614589,144.9737037,https://www.domain.com.au/29-3-holmes-street-brunswick-east-vic-3057-12486626,29/3 Holmes Street Brunswick East VIC 3057,285,1,1,1,Apartment / Unit / Flat,Available NOW -   Student  Only Accommodation,,,,
60,-37.8867334,145.0891144,https://www.domain.com.au/748-warrigal-road-malvern-east-vic-3145-14989490,748 Warrigal Road Malvern East VIC 3145,470,4,1,4,House,SPACIOUS THREE-BEDROOM HOUSE - MINUTES WALK TO CHADSTONE SHOPPING CENTRE,Matthew Swinnerton,"['Air conditioning', 'Built in wardrobes', 'Separate Dining Room']",,
61,-37.8072443,144.9602814,https://www.domain.com.au/3610-500-elizabeth-street-melbourne-vic-3000-16065365,3610/500 Elizabeth Street Melbourne VIC 3000,580,2,2,1,Apartment / Unit / Flat,ENJOY THE CITY LIFESTYLE WITH THIS TWO BEDROOM APARTMENT!,,,,
62,-37.8106088,144.9645798,https://www.domain.com.au/511-300-swanston-street-melbourne-vic-3000-14228047,511/300 Swanston Street Melbourne VIC 3000,550,2,1,0,Apartment / Unit / Flat,Two bedroom apartment in QV2 ONLY $450/WEEK,"You won't find a more desired location in Melbourne, and this stunning two bedroom, one bathroom apartment the perfect opportunity to make the CBD home. With every possible dining, shopping and entertainment amenity literally at your doorstep, you'll be spoilt for choice on how to spend your evenings in the most central location Melbourne has to offer. ",,,
63,-37.8329415,145.3045009,https://www.domain.com.au/15-collier-road-kilsyth-vic-3137-16057957,15 Collier Road Kilsyth VIC 3137,520,5,2,2,House,A REAL GEM!,,"['Mooroolbark Office', 'Built in wardrobes', 'Dishwasher', 'Shed', 'Laundry']",,
64,-37.7254163,144.9125388,https://www.domain.com.au/1-11-lebanon-street-strathmore-vic-3041-16009462,1/11 Lebanon Street Strathmore VIC 3041,440,4,1,2,House,FABULOUS LOCATION TO ENJOY!,,,,
65,-37.8533155,145.0445573,https://www.domain.com.au/4-1501-malvern-road-glen-iris-vic-3146-15991193,4/1501 Malvern Road Glen Iris VIC 3146,320,1,1,0,Apartment / Unit / Flat,Fantastic one bedroom apartment located in the Malvern Village complex,,,,
66,-37.9265447,145.152907,https://www.domain.com.au/1-17-montana-avenue-mulgrave-vic-3170-16057609,1/17 Montana Avenue Mulgrave VIC 3170,525,3,1,1,Apartment / Unit / Flat,STUNNING 3 BEDROOM UNIT,,,,
67,-37.6800729,145.0153812,https://www.domain.com.au/4-168-station-street-thomastown-vic-3074-16071458,4/168 Station Street Thomastown VIC 3074,300,2,1,1,Apartment / Unit / Flat,Conveniently Located,,,,
68,-37.9589131,145.1679095,https://www.domain.com.au/1-13-crescent-street-noble-park-vic-3174-16054134,1/13 Crescent Street Noble Park VIC 3174,380,3,1,1,Apartment / Unit / Flat,FULLY RENOVATED UNIT IN PRIME LOCATION!,,,,
69,-37.881053,145.027359,https://www.domain.com.au/2-470-glen-eira-road-caulfield-north-vic-3161-16038409,2/470 Glen Eira Road Caulfield North VIC 3161,570,3,2,4,Apartment / Unit / Flat,"Fresh, Bright & Open",Connor Delany,,,
70,-37.8284885,145.0334041,https://www.domain.com.au/308-81-riversdale-road-hawthorn-vic-3122-16035536,308/81 Riversdale Road Hawthorn VIC 3122,400,1,1,1,Apartment / Unit / Flat,Attractive YES!! Expensive NO!!  Welcome to your new Hawthorn abode!,,"['Air conditioning', 'Heating', 'Built in wardrobes', 'Close to transport', 'Close to shops', 'Intercom', 'Close to schools', 'Car Parking - Basement', 'Openable Windows']",,
71,-37.8033781,144.9587815,https://www.domain.com.au/804-95-berkeley-street-melbourne-vic-3000-16028812,804/95 Berkeley Street Melbourne VIC 3000,670,2,2,0,Apartment / Unit / Flat,Inspection for Registered Clients Only,,"['Secure Parking', 'Air conditioning', 'Balcony / Deck', 'Built in wardrobes', 'Dishwasher', 'Intercom']",,
72,-37.7493627,144.8012741,https://www.domain.com.au/80-oakden-cres-st-albans-vic-3021-16081151,80 Oakden Cres St Albans VIC 3021,450,4,2,1,Townhouse,Modern Townhouse,"Modern townhouse located within 5 minutes of St Albans Train Station and just 17KM from the Melbourne CBD, this is definitely one not to be missed. Walking distance to the Alfrieda Street precinct which includes supermarkets, cafes, restaurants, and banks. Nearby numerous schools such as St Albans Primary School, St Albans Secondary College &amp; Victoria University St Albans Campus.",,,
73,-37.7935645,144.8930438,https://www.domain.com.au/room-3-19-commercial-road-footscray-vic-3011-14872432,Room 3/19 Commercial Road Footscray VIC 3011,200,1,1,0,House,"ROOM IN A SHARED ACCOMODATION, Hassle free living!","A ROOM IS AVAILABLE in this 9 bedrooms shared accommodation. Provides full accommodations requirements from spacious kitchen, dishwashing room, individual pantry for each room, several bathrooms, ready to accommodate disable tenants, sunny alfresco outdoor BBQ area and much more. Each room completes with bed, desk and built in robe. Located close to Victorian University, shopping centres and",,,
74,-37.7876001,144.8227905,https://www.domain.com.au/1-kosky-street-sunshine-west-vic-3020-16053385,1 Kosky Street Sunshine West VIC 3020,360,3,1,3,House,Location and home just brilliant- LAWNS MAINTAINED BY OWNER,,,,
75,-37.8140968,144.9921436,https://www.domain.com.au/28-36-egan-street-richmond-vic-3121-16062307,28/36 Egan Street Richmond VIC 3121,450,2,1,1,Apartment / Unit / Flat,Light Filled Apartment in the Heart of Richmond,,"['Secure Parking', 'Air conditioning', 'Built in wardrobes', 'Dishwasher', 'Floorboards']",,
76,-37.8443143,144.9556985,https://www.domain.com.au/7-college-place-albert-park-vic-3206-16072059,7 College Place Albert Park VIC 3206,750,2,1,0,House,LOCATED IN ALBERT PARKS MOST HERITAGE-PROTECTED AREA!!,,,,
77,-37.7751338,144.7970672,https://www.domain.com.au/40-esmond-street-ardeer-vic-3022-16035224,40 Esmond Street Ardeer VIC 3022,400,3,2,1,House,GORGEOUS FAMILY HOME IN ARDEER,"This single storey home is offering 3 great-sized bedrooms all with built in robes, separate bathroom, side garage, open plan kitchen and meals area. Situated in one of Ardeer's most convenient locations opposite parklands, easy access to western ring road, only minutes from Sunshine Marketplace, Deer Park Shopping and Brimbank Shopping Centre.",,,
78,-37.703013,145.011367,https://www.domain.com.au/2-3-smith-street-reservoir-vic-3073-16075731,2/3 Smith Street Reservoir VIC 3073,350,2,1,1,Apartment / Unit / Flat,HIDDEN BEAUTY!!,,"['Air conditioning', 'Built in wardrobes', 'Close to transport', 'Close to schools']",,
79,-37.9790343,145.0717434,https://www.domain.com.au/2-113-warrigal-road-mentone-vic-3194-15965277,2/113 Warrigal Road Mentone VIC 3194,385,2,1,1,Apartment / Unit / Flat,Conveniently Located!,"A splendid location and charming, spacious interiors ensure this delightful residence is a must-see. A practical floor plan offers a sensational living area highlighted by a huge bay window framing a lush outlook and rich, glossy floorboards flowing throughout. The bright kitchen overlooks a casual meals area and is appointed with an electric free-standing oven, plentiful cabinetry, pantry and","['Floorboards', 'Built in wardrobes', 'Secure Parking']",,
80,-37.7315251,144.9938647,https://www.domain.com.au/3-9-bartlett-street-preston-vic-3072-15927548,3/9 Bartlett Street Preston VIC 3072,460,2,1,1,Townhouse,PRIME LOCATION!,***PLEASE REGISTER ONLINE PRIOR TO INSPECTION***,,,
81,-37.7126078,145.1017009,https://www.domain.com.au/107a-henry-street-greensborough-vic-3088-15940255,107a Henry Street Greensborough VIC 3088,315,1,3,0,Apartment / Unit / Flat,CUTE & COSY,,,,
82,-37.8055641,144.9633777,https://www.domain.com.au/520-488-swanston-street-carlton-vic-3053-15825137,520/488 Swanston Street Carlton VIC 3053,380,1,1,0,Apartment / Unit / Flat,Arrow on Swanston,,,,
83,-37.867083,145.0029893,https://www.domain.com.au/9-433-inkerman-road-st-kilda-east-vic-3183-15916057,9/433 Inkerman Road St Kilda East VIC 3183,475,2,2,1,Apartment / Unit / Flat,SECURE APARTMENT IN GREAT LOCATION | Besser+Co,"Secure ground floor apartment in well maintenance building. This spacious apartment delivers a laid-back luxe lifestyle in the heart of vibrant St Kilda East. Located within minutes of Carlisle Streets cafes', restaurants and shops, as well as parks and a choice of public transport options nearby to ensure easy commuting to wherever you want to go. ",,,
84,-37.805589499999996,144.9579863,https://www.domain.com.au/410-9-13-o-connell-street-north-melbourne-vic-3051-16043326,410/9-13 O'Connell Street North Melbourne VIC 3051,395,1,1,0,Apartment / Unit / Flat,North Melbourne 410/9-13 O'Connell Street,Martine Cullen,,,
85,-37.7144842,145.0607509,https://www.domain.com.au/95c-116-130-main-drive-macleod-vic-3085-8431359,95C/116-130 Main Drive Macleod VIC 3085,220,1,1,0,Studio,STUDENT ONLY ACCOMODATION AT Kingsbury Gardens - Double Studio,,"['Split System Heating', 'Split System Air Con', 'Built in wardrobes', 'Gym', 'Furnished', 'Air conditioning', 'Rumpus Room']",,
86,-37.7813956,145.0817083,https://www.domain.com.au/18-viewpoint-road-balwyn-north-vic-3104-16077031,18 Viewpoint Road Balwyn North VIC 3104,720,2,1,1,House,HIGH SET ALLURE IN BALWYN HIGH ZONE,John Zolis,,,
87,-37.8392521,144.9458478,https://www.domain.com.au/41-cruikshank-street-port-melbourne-vic-3207-16015071,41 Cruikshank Street Port Melbourne VIC 3207,550,2,1,1,House,Spacious 3 Bedroom Home,"This comfortable family living close to Bay Street shopping, Albert Park village and the beach.
Accommodation comprises 3 double bedrooms, living room with gas heating, huge kitchen with a meals area, separate laundry and large courtyard with storage.","['Garden / Courtyard', 'Gas']",,
88,-37.8531717,145.0491435,https://www.domain.com.au/6-kenilworth-grove-glen-iris-vic-3146-16034616,6 Kenilworth Grove Glen Iris VIC 3146,650,2,1,1,House,Beautifully Presented Home In Glen Iris,Georgie Paganis,"['Dishwasher', 'Split System (Heating)', 'Split System (Air Con)']",,
89,-37.7703889,145.3189068,https://www.domain.com.au/3a-tibarri-court-mooroolbark-vic-3138-16036622,3A Tibarri Court Mooroolbark VIC 3138,440,3,1,2,Apartment / Unit / Flat,"3a Tibarri Court, Mooroolbark","Modern Stylish open plan living in a quiet court location. 
This high quality low maintenance 2 bedroom brick veneer unit ticks all the boxes.",,,
90,-37.894668,145.087443,https://www.domain.com.au/4-9-warrigal-rd-hughesdale-vic-3166-13105099,4/9 Warrigal Rd Hughesdale VIC 3166,600,3,2,1,Townhouse,FULLY FURNISHED 3 to 6 months leases by Readyset Apartments,"Property ID. 90978
Send an online enquiry then check your email for a link to apply.","['Air conditioning', 'Built in wardrobes', 'Furnished', 'Heating', 'Internal Laundry', 'Dishwasher']",,
91,-37.9243783,145.1270305,https://www.domain.com.au/ap11-29-browns-road-clayton-vic-3168-15726310,AP11/29 Browns Road Clayton VIC 3168,,1,1,0,New Apartments / Off the Plan,"Best rent in the area, Rent Free during promotion",,"['Air conditioning', 'Built in wardrobes', 'Gas Stove', 'Intercom', 'Secure Parking', 'Alarm System', 'Heating']",,
92,-37.8820285,145.1710011,https://www.domain.com.au/2-30-glen-court-glen-waverley-vic-3150-16080322,2/30 Glen Court Glen Waverley VIC 3150,800,4,4,2,Townhouse,Beautiful home in sort after location!!!,,,,
93,-37.9127454,145.0301984,https://www.domain.com.au/49-wright-street-mckinnon-vic-3204-15971424,49 Wright Street McKinnon VIC 3204,900,4,3,2,House,LARGE PET FRIENDLY FAMILY HOME WITH HUGE BACKYARD AND NEIGHBOURING ALLNUT PARK,Fantastic family positioned in a quiet cul de sac neighbouring one of the areas biggest and best parks. It's also close to shops and public transport. A perfect home for a growing and active family. ,,,
94,-37.8408458,145.115147,https://www.domain.com.au/43-neville-street-box-hill-south-vic-3128-16076023,43 Neville Street Box Hill South VIC 3128,445,3,1,3,House,LOVELY THREE BEDROOM HOME IN GREAT LOCATION,Taylor Nickerl,"['Dishwasher', 'Split System Air Con', 'Split System Heating', 'Floorboards']",,
95,-37.7853568,144.8387695,https://www.domain.com.au/7-85-devonshire-road-sunshine-vic-3020-16049335,7/85 Devonshire Road Sunshine VIC 3020,270,1,1,0,Apartment / Unit / Flat,Clean & Tidy,,,,
96,-37.7538311,144.9456088,https://www.domain.com.au/229b-melville-road-brunswick-west-vic-3055-14856919,229B Melville Road Brunswick West VIC 3055,440,3,1,2,House,Ideal Location!,,,,
97,-37.8573869,145.0059162,https://www.domain.com.au/4-30-chomley-street-prahran-vic-3181-16008306,4/30 Chomley Street Prahran VIC 3181,420,2,1,0,Apartment / Unit / Flat,Two Bedroom Apartment In Great Location,"Featuring a smart and stylish interior with abundant natural light and a sought after Prahran position ensures this first floor apartment ticks all the boxes. Compromises: 
- Generous interior spaces include light filled living and dining 
- Carpet throughout 
- Spacious separate kitchen with meals area and gas cooking 
- Two double bedrooms, each boasting built-in-robes 
- An updated bathroom",,,
98,-37.9683254,145.0561631,https://www.domain.com.au/5-3-stanley-ave-cheltenham-vic-3192-15832683,5/3 Stanley Ave Cheltenham VIC 3192,525,2,1,1,Townhouse,Modern & Spacious with Amenities at your Doorstep,Leasing Concierge,,,
99,-37.8089991,144.9610792,https://www.domain.com.au/3508-80-a-beckett-street-melbourne-vic-3000-16031413,3508/80 A'Beckett Street Melbourne VIC 3000,620,2,2,1,Apartment / Unit / Flat,**SPECTACULAR 2 BEDROOM APARTMENT WITH 1 CAR PARK IN HEART OF CBD**,,,,
100,-37.8834979,144.7327338,https://www.domain.com.au/92-boardwalk-boulevard-point-cook-vic-3030-16067015,92 Boardwalk Boulevard Point Cook VIC 3030,390,3,2,1,House,Location - Opposite Point Cook Town Centre,,,,
101,-37.8518999,145.0427486,https://www.domain.com.au/10-304-tooronga-road-glen-iris-vic-3146-16078526,10/304 Tooronga Road Glen Iris VIC 3146,350,3,2,1,Apartment / Unit / Flat,LOVELY TWO BEDROOM APARTMENT,Caterina Zuccarello,"['Dishwasher', 'Split System Air Con', 'Split System Heating', 'Built in wardrobes']",,
102,-37.7805149,145.0241453,https://www.domain.com.au/7-1a-hamilton-street-alphington-vic-3078-16054868,7/1A Hamilton Street Alphington VIC 3078,540,2,1,1,Townhouse,BIG AND BEAUTIFUL,,,,
103,-37.848695,144.9511051,https://www.domain.com.au/9-123-beaconsfield-parade-albert-park-vic-3206-16072484,9/123 Beaconsfield Parade Albert Park VIC 3206,810,4,3,3,Apartment / Unit / Flat,Bayside Beauty!,Matthew Curnow,"['Balcony / Deck', 'Dishwasher', 'Ducted Cooling', 'Ducted Heating', 'Floorboards', 'Intercom', 'Outdoor Entertainment Area', 'Remote Garage', 'Secure Parking', 'City Views', 'Internal Laundry', 'Bath', 'Modern Kitchen']",,
104,-37.8829391,144.9957584,https://www.domain.com.au/4-251-brighton-road-elwood-vic-3184-15997498,4/251 Brighton Road Elwood VIC 3184,595,3,1,0,Townhouse,3 BEDROOM WITH A GARAGE!,,,,
105,-37.9631204,145.0606655,https://www.domain.com.au/2-22-wilson-street-cheltenham-vic-3192-16024571,2/22 Wilson Street Cheltenham VIC 3192,450,2,1,2,Apartment / Unit / Flat,GREAT 2 BEDROOM UNIT WITH LARGE COURTYARD,,"['Courtyard', 'Gas', 'Secure Parking', 'Gas Cooking & Heating', 'Bathtub']",,
106,-37.905539,144.9875295,https://www.domain.com.au/10-297-st-kilda-street-brighton-vic-3186-15973696,10/297 St Kilda Street Brighton VIC 3186,530,2,1,2,Apartment / Unit / Flat,"""STUNNING REFURBISHED  APARTMENT WITH 2 CARSPACES""","A hop, skip 'n jump from Brighton beach is this sunny first-floor period apartment set peacefully at the rear of the block. Fully refurbished, the apartment has a modern open plan kitchen and living zone with built in dining area, gas cooktop and dishwasher, split system heating and air-conditioning plus North facing balcony. Two very large bedrooms both with built in wardrobes, central bathroom",,,
107,-37.7080985,145.0229232,https://www.domain.com.au/3-88-purinuan-road-reservoir-vic-3073-16059983,3/88 Purinuan Road Reservoir VIC 3073,370,2,1,1,Apartment / Unit / Flat,When Locations Matters!,,,,
108,-37.7544514,144.8224428,https://www.domain.com.au/4-moonstone-circuit-st-albans-vic-3021-15674213,4 Moonstone Circuit St Albans VIC 3021,350,3,1,1,House,HANDY LOCATION!!!!  LOVELY FAMILY HOME!!!!!,"Lovely 3 bedrooms, 2 bathrooms in a handy location. Features with double garage, open space for kitchen area, extra rumpus room. A must view. Be quick.",['Secure Parking'],,
109,-37.82409579999999,144.9636789,https://www.domain.com.au/1508-60-kavanagh-street-southbank-vic-3006-15922561,1508/60 Kavanagh Street Southbank VIC 3006,580,2,2,1,Apartment / Unit / Flat,Luxury Lifestyle in the Heart of Southbank,,,,
110,-37.7749665,144.9461059,https://www.domain.com.au/11-449-brunswick-road-brunswick-west-vic-3055-11952403,11/449 Brunswick Road Brunswick West VIC 3055,240,2,1,1,Apartment / Unit / Flat,Ticks all the Boxes!,"This recently updated, ground floor apartment comprises new open plan lounge/ kitchen, bedroom with B.I.R's, bathroom, carspace.","['Built in wardrobes', 'Heating']",,
111,-37.83087750000001,144.9686406,https://www.domain.com.au/117-39-dorcas-st-south-melbourne-vic-3205-15262716,117/39 Dorcas St South Melbourne VIC 3205,800,2,2,1,Apartment / Unit / Flat,Renovated! Immaculate!,,,,
112,-37.746327,144.9616461,https://www.domain.com.au/33-loch-street-coburg-vic-3058-16078936,33 Loch Street Coburg VIC 3058,710,4,1,1,House,Great lifestyle in a Prized Location,,,,
113,-37.81456,144.9574098,https://www.domain.com.au/514-199-william-street-melbourne-vic-3000-14460001,514/199 William Street Melbourne VIC 3000,600,2,1,0,Apartment / Unit / Flat,2 Bedroom Furnished Apartment Available NOW !,"Stylish, spacious &amp; in a prime city location, this two-bedroom apartment at The William, offers residents the very best in design &amp; convenience with luxury resort style living.","['Air conditioning', 'Floorboards', 'Gym', 'Intercom', 'Built in wardrobes', 'Furnished', 'Internal Laundry', 'Cable or Satellite', 'Gas', 'Broadband internet access', 'Heating', 'Dishwasher', 'Study', 'Double glazed windows', 'Water efficient appliances', 'Swimming Pool', 'Balcony / Deck']",,
114,-37.8650177,144.9746821,https://www.domain.com.au/3203-14-16-the-esplanade-st-kilda-vic-3182-15986065,3203/14-16 The Esplanade St Kilda VIC 3182,2500,3,3,2,Apartment / Unit / Flat,Live A Life Like No Other - Exclusive Leasing Opportunity (Ocean View),"Inspired by the interplay of timeless design and beach ambiance, Melbourne joins the ranks of Miami, Santa Monica, Saint-Tropez and Cannes with Saint Moritz Beachfront Residences. 
The brand-new development by GURNER reaches a level of architectural detail, amenity and service level that is the first of its kind on the global stage. Saint Moritz is a lush resort-style oasis of three private","['INSIDE:', 'Gym', 'Intercom', 'Floorboards', 'Built in wardrobes', 'Dishwasher', 'Broadband', 'Ducted Heating', 'Ducted Air Conditioning', 'Inside Spa', 'OUTSIDE:', 'Balcony', 'Remote Garage', 'Secure Parking', 'In Ground Pool', 'LOCATION:', 'Ocean Views']",,
115,-37.7082557,144.9359315,https://www.domain.com.au/19-stella-street-glenroy-vic-3046-16037068,19 Stella Street Glenroy VIC 3046,440,3,2,1,Townhouse,"""Stunning Townhouse in the heart of Glenroy""",,"['Air conditioning', 'Alarm System', 'Close to schools', 'Carpeted']",,
116,-37.8762705,144.9915837,https://www.domain.com.au/7-145-brighton-road-elwood-vic-3184-16063298,7/145 Brighton Road Elwood VIC 3184,460,2,1,2,Apartment / Unit / Flat,RENOVATED HIDDEN GEM IN ELWOOD - PET FRIENDLY,"An excellent opportunity presents itself to live in this newly renovated apartment in a block of only eight.
This first floor apartment comprises of: intercom entry, two spacious bedrooms with built in robes, period features, storage, open plan living &amp; dining areas, separate kitchen with quality stainless steel chefs oven and cooktop, dishwasher and modern central bathroom.
These ""cool","['Air conditioning', 'Heating', 'Built in wardrobes', 'Close to transport', 'Close to shops', 'Intercom', 'Pets Allowed', 'Close to schools', 'Floorboards', 'Dishwasher']",,
117,-38.14061299999999,145.1218503,https://www.domain.com.au/2-428-nepean-highway-frankston-vic-3199-16062066,2/428 Nepean Highway Frankston VIC 3199,370,2,1,1,Apartment / Unit / Flat,Cosmopolitan Living in City Centre,,,,
118,-37.812564,144.9628184,https://www.domain.com.au/1505-250-elizabeth-street-melbourne-vic-3000-16078181,1505/250 Elizabeth Street Melbourne VIC 3000,520,1,1,0,Apartment / Unit / Flat,"SPACIOUS 2 BEDROOM APARTMENT - IN POPULAR, SECURE LOCATION",Barbara Baltas,,,
119,-37.8096952,144.9595078,https://www.domain.com.au/level51-135-a-beckett-street-melbourne-vic-3000-14055466,Level51/135 A'beckett Street Melbourne VIC 3000,580,2,1,0,Apartment / Unit / Flat,Breathtaking City View Luxurious Fully furnished 2B Apartment/,Phone enquiry code for this property : 4653,"['Air conditioning', 'Balcony/Patio/Terrace', 'Bath', 'Built in wardrobes', 'Furnished', 'Modern Bathroom', 'Modern Kitchen', 'Floorboards', 'Gym', 'Pets Allowed', 'Shower Facilities', 'Alarm System', 'Concierge/Manager', 'Intercom', 'Safe', 'Swipe Card', 'Quiet Location', 'Views', 'Non Smoking', 'Gas Enabled', 'Broadband', 'Dishwasher', 'Balcony', 'Outside Spa']",,
120,-37.8097514,144.9626141,https://www.domain.com.au/4708-228-la-trobe-street-melbourne-vic-3000-15794818,4708/228 La Trobe Street Melbourne VIC 3000,750,2,1,0,Apartment / Unit / Flat,Furnished  2Bedroom 1Bathroom Apartment in Aurora Building,,"['INSIDE:', 'Gym', 'Intercom', 'Alarm System', 'Floorboards', 'Dishwasher', 'Broadband', 'Gas Appliances', 'Split System Heating', 'Air conditioning', 'Gas Hot Water', 'Inside Spa', 'OUTSIDE:', 'Remote Garage', 'Above Ground Pool', 'LOCATION:', 'City Views']",,
121,-38.0757543,145.3302914,https://www.domain.com.au/12-beacon-drive-cranbourne-north-vic-3977-16070575,12 Beacon Drive Cranbourne North VIC 3977,475,4,2,2,House,Perfect For The Family!,,,,
122,-38.0420508,145.3237744,https://www.domain.com.au/6-poa-mews-berwick-vic-3806-16052753,6 Poa Mews Berwick VIC 3806,385,1,1,0,House,Modern 2 Bedroom Unit,"Welcome to a life of leafy views and secluded tranquillity. Situated within walking distance to wetlands and sporting fields, this is a unique lifestyle opportunity. 
This single storey two-bedroom unit has a modern floorplan and is designed with low maintenance living in mind. Offering two bedrooms with robes, generous central family bathroom with separate shower and bath, laundry, hostess",,,
123,-37.809745,144.958777,https://www.domain.com.au/car-park-31-a-beckett-street-melbourne-vic-3000-13841674,Car Park 31 A'Beckett Street Melbourne VIC 3000,50,2,1,0,House,Car Park for rent @ 31 A'Beckett Street Melbourne,"Car park for rent close to RMIT, Melbourne centre, 12 months lease available 
Available now!",,,
124,-37.8120511,144.9517315,https://www.domain.com.au/601-55-jeffcott-street-west-melbourne-vic-3003-16081781,601/55 Jeffcott Street West Melbourne VIC 3003,520,2,1,1,Apartment / Unit / Flat,Inspection for Registered Clients Only,"UNFURNISHED - Two bedroom apartment bathing in plenty of natural light, on the top floor of the low density Orchid complex, close to Flagstaff Gardens!","['Secure Parking', 'Air conditioning', 'Built in wardrobes', 'Dishwasher', 'Intercom']",,
125,-37.6839243,144.9196137,https://www.domain.com.au/4-15-railway-crescent-broadmeadows-vic-3047-16045540,4/15 Railway Crescent Broadmeadows VIC 3047,390,2,2,1,Townhouse,WAITING FOR YOU TO MOVE IN AND ENJOY,,,,
126,-37.9320509,145.0410046,https://www.domain.com.au/14c-castles-road-bentleigh-vic-3204-15888537,14c Castles Road Bentleigh VIC 3204,750,3,1,2,Townhouse,Brand New Luxury Townhouse,,,,
127,-37.8097514,144.9626141,https://www.domain.com.au/228-la-trobe-st-melbourne-vic-3000-16054137,228 La Trobe St Melbourne VIC 3000,70,4,2,2,Carspace,CAR PARKS AVAILABLE NOW AT AURORA MELBOURNE CENTRAL - FOR LEASE!,AZeta Assistant PM,,,
128,-37.7356088,145.0182741,https://www.domain.com.au/18-brown-street-preston-vic-3072-16032747,18 Brown Street Preston VIC 3072,640,2,2,1,Townhouse,A CUT ABOVE THE REST,,"['Air conditioning', 'Gas', 'Study']",,
129,-37.7453296,144.949375,https://www.domain.com.au/112-gordon-street-coburg-vic-3058-16022913,112 Gordon Street Coburg VIC 3058,650,5,1,2,House,PERIOD CHARISMA,,"['Secure Parking', 'Workshop']",,
130,-37.8321481,144.9430141,https://www.domain.com.au/311-ross-street-port-melbourne-vic-3207-16070950,311 Ross Street Port Melbourne VIC 3207,950,2,2,1,Townhouse,Beautiful home in a prime location,Kerttu Luik,"['INSIDE:', 'Floorboards', 'Built in wardrobes', 'Dishwasher', 'Gas Appliances', 'Ensuite(s)', 'OUTSIDE:', 'Balcony', 'Remote Garage', 'Secure Parking']",,
131,-37.828541,144.8684162,https://www.domain.com.au/23-brunel-street-south-kingsville-vic-3015-16010495,23 Brunel Street South Kingsville VIC 3015,490,3,3,2,Townhouse,"GREAT SPACE, ""FRESH FEEL"" THREE BEDROOM TOWNHOUSE",,"['Air conditioning', 'Floorboards', 'Alarm System', 'Built in wardrobes', 'Bath', 'Separate Dining Room', 'Heating', 'Dishwasher', 'Secure Parking', 'Balcony / Deck', 'Garden / Courtyard']",,
132,-37.8215156,145.2455826,https://www.domain.com.au/3-5-fremont-street-heathmont-vic-3135-16019633,3/5 Fremont Street Heathmont VIC 3135,415,2,1,1,Apartment / Unit / Flat,Fantastic location,"In a leafy street only a short walk from cafes, shops, public transport and schools this is just the beginning of this neat and tidy home, the perfect answer for those searching for an extremely low-maintenance property.","['Air conditioning', 'Close to transport', 'Close to shops', 'Close to schools', 'Carpeted', 'Toilet Facilities', 'Fully fenced']",,
133,-37.814476,145.0009559,https://www.domain.com.au/13-kent-street-richmond-vic-3121-16036017,13 Kent Street Richmond VIC 3121,840,2,2,1,Townhouse,HUGE TOWNHOUSE IN PERFECT RICHMOND LOCATION,,,,
134,-37.9051824,144.7309492,https://www.domain.com.au/44-victorking-drive-point-cook-vic-3030-16041063,44 Victorking Drive Point Cook VIC 3030,550,4,2,2,House,A perfect Family home !,,"['Alarm System', 'Built in wardrobes', 'Dishwasher', 'Ducted Cooling', 'Ducted Heating', 'Ensuite']",,
135,-37.804392,144.8926999,https://www.domain.com.au/68b-walter-street-seddon-vic-3011-16077762,68B Walter Street Seddon VIC 3011,695,3,2,3,Townhouse,Contemporary Living in the heart of Seddon Village,,"['Balcony / Deck', 'Air conditioning', 'Split System Air Con', 'Built in wardrobes', 'Dishwasher', 'Fully fenced', 'Intercom', 'Remote Garage', 'Secure Parking', 'Split System Heating', 'Floorboards']",,
136,-37.8687809,144.8262799,https://www.domain.com.au/7-8-david-altona-vic-3018-16064178,7/8 David Altona VIC 3018,600,2,2,1,Apartment / Unit / Flat,An opportunity you don't want to miss!!!,,"['Air conditioning', 'Floorboards', 'Built in wardrobes', 'Separate Dining Room', 'Secure Parking']",,
137,-37.835719,144.9998042,https://www.domain.com.au/5-37-rockley-road-south-yarra-vic-3141-16013603,5/37 Rockley Road South Yarra VIC 3141,640,2,2,2,Apartment / Unit / Flat,"Location, Lifestyle, Livability - Love it","This stunning over-sized, fully renovated apartment is located in one of South Yarra's prized tree-lined street's. Mere moments from cosmopolitan Toorak Road and Chapel Street's famous cafes/eateries, boutique shops, galleries, Yarra River, Como Park and public transport.","['Built in wardrobes', 'Intercom']",,
138,-37.8082901,144.9608496,https://www.domain.com.au/3304-442-elizabeth-street-melbourne-vic-3000-16054476,3304/442 Elizabeth Street Melbourne VIC 3000,600,1,1,0,Apartment / Unit / Flat,WHY PAY FOR SOMETHING YOU DON'T NEED?!,"3304/442 Elizabeth Street, Melbourne
These spectacular apartments have been architecturally designed, boast indulgent views and bespoke interior design, in a light filled and liberating space that is sure to take your breath away.",,,
139,-37.8125891,145.0806135,https://www.domain.com.au/1-3-335-whitehorse-road-balwyn-vic-3103-15877038,1 & 3/335 Whitehorse Road Balwyn VIC 3103,620,3,2,2,Apartment / Unit / Flat,Two fully Furnished Apartments in the heart of Balwyn,,['Furnished'],,
140,-37.6267881,145.0059375,https://www.domain.com.au/20-legg-walk-epping-vic-3076-16048852,20 Legg Walk Epping VIC 3076,480,4,2,2,House,Stunning Family Home,,"['Air conditioning', 'Heating', 'Built in wardrobes', 'Close to transport', 'Close to shops', 'Close to schools', 'Ensuite']",,
141,-37.8699169,145.018443,https://www.domain.com.au/5-74-kooyong-road-caulfield-north-vic-3161-10347468,5/74 Kooyong Road Caulfield North VIC 3161,520,2,2,1,Townhouse,Perfect Position,"Step inside this three level, two bedroom townhouse with encompasses modern living at its best.","['Car Accom: Single Security Parking', 'Heating: Reverse Cycle Air Conditioning', 'Cooling: Reverse Cycle Air Conditioning', 'Cooking: Gas Hotplates and Electric Oven']",,
142,-37.8931259,145.0543238,https://www.domain.com.au/3-102-truganini-road-carnegie-vic-3163-15350999,3/102 Truganini Road Carnegie VIC 3163,375,3,2,1,Apartment / Unit / Flat,TWO BEDROOM UNIT IN PERFECT LOCATION,James Drakopoulos,"['Air conditioning', 'Split System Heating', 'Built in wardrobes', 'Split System Air Con']",,
143,-37.8086568,144.967786,https://www.domain.com.au/24-131-la-trobe-street-melbourne-vic-3000-16077991,24/131 La Trobe Street Melbourne VIC 3000,500,2,1,0,Apartment / Unit / Flat,2 Bedroom / 2 Bathrooms / Storage Room and More! | HODGES CAULFIELD,,"['Dishwasher', 'Balcony / Deck', 'Built in wardrobes', 'Split System Air Con', 'Split System Heating', 'Heating']",,
144,-37.7972513,144.8677634,https://www.domain.com.au/8-695-barkly-street-west-footscray-vic-3012-7467839,8/695 Barkly Street West Footscray VIC 3012,450,2,2,1,Townhouse,CONTEMPORARY LIVING,"Set at the back of the block, away from the hustle and bustle of Barkly Street, is this spacious and convenient town residence ideal for the professional looking for low maintenance living.
Featuring;
 3 carpeted bedrooms all with built in robes
 Crisp modern bathroom with separate shower recess and bath
 Bright beech veneer kitchen with stainless steel appliances
 Large family living area",,,
145,-37.8022125,145.0666089,https://www.domain.com.au/1-3-birtles-street-balwyn-vic-3103-15994310,1/3 Birtles Street Balwyn VIC 3103,445,2,1,1,House,Ground Floor Unit in Prime Balwyn Location - Water Usage Included,,,,
146,-37.7297286,145.032694,https://www.domain.com.au/40-andrews-avenue-reservoir-vic-3073-16063802,40 Andrews Avenue Reservoir VIC 3073,400,2,1,4,House,3 Bedroom - Perfect Location - Close to everything !,"Ready for lease is this home. 3 bedrooms, spacious kitchen/meals, living room, bathroom, separate toilet and laundry. Its neat clean and light filled.
Located in walking distance to schools, Northland Shopping Centre and transport
Additional inclusions of 2 car garage, ducted heating, air conditioning and storage room.",,,
147,-37.8311296,144.9957691,https://www.domain.com.au/16-gordon-street-cremorne-vic-3121-16023846,16 Gordon Street Cremorne VIC 3121,600,2,1,0,House,Charming Double Storey Home with a Beautiful Courtyard,"This beautiful light-filled two storey town house can you your next home that has everything you need, all enviably located within one of the most highly sought after pockets of Richmond. Featuring floorboards downstairs and carpet upstairs, sparkling kitchen equipped with benchtops, quality appliances and ample cupboard space. Offering two sizeable bedrooms and a generous courtyard perfect for","['Air conditioning', 'Balcony / Deck', 'Garden / Courtyard', 'Outdoor Entertainment Area', 'Built in wardrobes', 'Dishwasher', 'Floorboards']",,
148,-37.880052,144.7735378,https://www.domain.com.au/3-37-39-may-avenue-altona-meadows-vic-3028-15821835,3/37-39 May Avenue Altona Meadows VIC 3028,380,3,1,1,Apartment / Unit / Flat,IT DOESN'T GET BETTER THAN THIS,,,,
149,-37.9136587,145.1239837,https://www.domain.com.au/213-1457-north-road-clayton-vic-3168-8642586,213/1457 North Road Clayton VIC 3168,280,2,1,1,Apartment / Unit / Flat,VICINITY Apartments - Student Accommodation Clayton,,,,
150,-37.926215,145.082637,https://www.domain.com.au/4-646-warrigal-road-malvern-east-vic-3145-15019499,4/646 Warrigal Road Malvern East VIC 3145,,4,2,4,House,ROOFTOP TERRACE WITH CITY SKYLINE,,,,
151,-37.7276821,144.9915837,https://www.domain.com.au/639-gilbert-road-reservoir-vic-3073-15995242,639 Gilbert Road Reservoir VIC 3073,420,3,1,1,House,Spacious 2 bedroom house,,"['Air conditioning', 'Reverse Cycle Air Con']",,
152,-37.7970973,144.9805885,https://www.domain.com.au/102-353-napier-street-fitzroy-vic-3065-16029257,102/353 Napier Street Fitzroy VIC 3065,430,1,1,0,Apartment / Unit / Flat,FANTASTIC LOCATION - INNER CITY LIVING AT ITS BEST,,"['Air conditioning', 'Heating', 'Built in wardrobes', 'Close to transport', 'Close to shops', 'Intercom', 'Close to schools', 'City Views', 'Security Access', 'Security System']",,
153,-37.86280259999999,144.9987682,https://www.domain.com.au/2-2-boondara-grove-st-kilda-east-vic-3183-16008131,2/2 Boondara Grove St Kilda East VIC 3183,465,2,1,1,Apartment / Unit / Flat,BEAUTIFUL GROUND FLOOR APARTMENT WITH LARGE COURTYARD,"This beautiful ground floor apartment, situated in a pretty little tree lined street off Alma Road, is very handy to Dandenong Road and Hotham Street's public transport and walking distance to cosmopolitan Carlisle Street - with it's fabulous strip shopping centre and all those funky little bars and restaurants. In a security block of only 4, your apartment has it's own private paved courtyard",,,
154,-37.82930169999999,145.0407462,https://www.domain.com.au/1-71-riversdale-road-hawthorn-vic-3122-15809049,1/71 Riversdale Road Hawthorn VIC 3122,269,1,1,1,Apartment / Unit / Flat,Studio Deluxe Apartments $269 per week - Students and Non-Students,,"['Ensuite(s)', 'Study', 'Furnished', 'Built in wardrobes']",,
155,-37.9211817,145.061117,https://www.domain.com.au/g05-817-819-centre-road-bentleigh-east-vic-3165-16001421,G05/817-819 Centre Road Bentleigh East VIC 3165,375,1,1,1,Apartment / Unit / Flat,"1 BEDROOM, 1 BATHROOM APARTMENT - PERFECT LOCATION",This modern complex is located only minutes away from shops and restaurants. Get out doors with the Bentleigh Reserve close by.,,,
156,-38.0287162,145.2665614,https://www.domain.com.au/19-village-drive-hampton-park-vic-3976-16077901,19 Village Drive Hampton Park VIC 3976,420,3,1,0,House,Modern Touch,,,,
157,-37.9294462,145.1585224,https://www.domain.com.au/39a-wattle-grove-mulgrave-vic-3170-16080168,39A Wattle Grove Mulgrave VIC 3170,630,3,2,1,Townhouse,MODERN FOUR BEDROOM TOWNHOUSE IN GREAT LOCATION,James Drakopoulos,"['Dishwasher', 'Evaporative Cooling', 'Built in wardrobes', 'Garden / Courtyard', 'Ducted Heating']",,
158,-37.972112,145.211907,https://www.domain.com.au/15-61-james-street-dandenong-vic-3175-11271642,15/61 James Street Dandenong VIC 3175,69.23,2,2,1,Apartment / Unit / Flat,Perfect Location!,,,,
159,-37.7543659,145.0533732,https://www.domain.com.au/405-58-myrtle-street-ivanhoe-vic-3079-16029530,405/58 Myrtle Street Ivanhoe VIC 3079,430,2,1,1,Apartment / Unit / Flat,Modern Luxurious apartment !!,,,,
160,-38.0003946,145.0970255,https://www.domain.com.au/108-90-white-street-mordialloc-vic-3195-16062325,108/90 White Street Mordialloc VIC 3195,475,2,1,1,Apartment / Unit / Flat,Apartment Living with a Beach Style Vibe,"INSPECTING IS EASY - Simply scroll down the page to the 'INSPECTIONS' subheading and click 'REQUEST A TIME' to book a date and time or submit your enquiry. Please ensure you register your details prior to attending the inspection. Once registered, we can keep you updated with available inspections times and any changes or cancellations. So don't miss out, book an inspection today!","['Balcony / Deck', 'Built in wardrobes', 'Floorboards', 'Intercom', 'Reverse Cycle Air Con', 'Secure Parking', 'European Laundry', 'Separate Bath', 'Quality Carpets']",,
161,-37.8869388,145.0421254,https://www.domain.com.au/149-115-neerim-road-glen-huntly-vic-3163-16012166,149/115 Neerim Road Glen Huntly VIC 3163,395,2,1,1,Apartment / Unit / Flat,Lifestyle Living In A Prime Location!,,"['Air conditioning', 'Heating', 'Built in wardrobes', 'Close to transport', 'Close to shops', 'Intercom', 'Close to schools', 'Security Access', 'Lift Installed', 'Exhaust', 'Openable Windows', 'Window Treatments']",,
162,-37.837386,145.114883,https://www.domain.com.au/30-fowler-street-box-hill-south-vic-3128-16056264,30 Fowler Street Box Hill South VIC 3128,450,2,1,1,House,Perfectly Positioned & Perfectly Priced,,,,
163,-37.8322913,145.0415429,https://www.domain.com.au/16-37-robinson-rd-hawthorn-vic-3122-16053592,16/37 Robinson Rd Hawthorn VIC 3122,795,3,2,4,Townhouse,This is your next home,Pyper Byrne,,,
164,-37.805271,145.0611816,https://www.domain.com.au/1-1289-burke-road-kew-vic-3101-15788834,1/1289 Burke Road Kew VIC 3101,900,4,3,2,Townhouse,"1/1289 Burke Road, Kew, VIC 3101",,"['Air conditioning', 'Ensuite', 'Ground floor', 'Built in wardrobes', 'Dishwasher', 'Study', 'Heating', 'Fireplace(s)', 'Fully fenced']",,
165,-37.824693,145.044134,https://www.domain.com.au/2-2-6-edlington-street-hawthorn-vic-3122-11369564,2/2-6 Edlington Street Hawthorn VIC 3122,450,2,1,1,Apartment / Unit / Flat,Perfectly positioned Art Deco Apartment,"Set in a small block of 4 this stunning first floor two bedroom Art Deco style apartment offers two spacious bedrooms, bright formal living room, separate updated kitchen with stainless steel appliances including dishwasher, central bathroom, laundry and off street parking for one car.","['Car Accom: Single Carport', 'Heating: Reverse Cycle Air Conditioning', 'Cooling: Reverse Cycle Air Conditioning', 'Cooking: Gas Hotplates and Electric Oven']",,
166,-37.8789071,144.9829411,https://www.domain.com.au/104-60-62-broadway-elwood-vic-3184-15904413,104/60-62 Broadway Elwood VIC 3184,530,2,1,1,Apartment / Unit / Flat,Executive Apartment With Balcony,"Located next door to the iconic Elwood canal and only a short walk to the beach, Acland Street and Ormond Road shops and cafes, you will be spoilt for choice. Situated on the first floor, this apartment has a contemporary design and superior fixtures, kitchen with marble bench tops, equipped with stainless steel Miele appliances and an integrated dishwasher. Features include carpeted main bedroom",,,
167,-37.7166415,145.0039793,https://www.domain.com.au/2-39-olive-street-reservoir-vic-3073-16043344,2/39 Olive Street Reservoir VIC 3073,420,2,1,2,Townhouse,Fantastic Location,,"['Air conditioning', 'Built in wardrobes']",,['99']
168,-37.8755183,144.7015875,https://www.domain.com.au/111-morris-road-hoppers-crossing-vic-3029-16059408,111 Morris Road Hoppers Crossing VIC 3029,300,3,1,1,House,Spacious 2BR house in the heart of Hoppers Crossing!,Ray White Tarneit is proud to present this 2 bedroom house in Hoppers Crossing minutes from the train station and shops. Enjoy comfort in this 2 bedroom brick house with lovely lead-light entry and granite flooring. Air-conditioning in master bedroom and living room. Bright sunlit rooms and ample off-street parking on a paved driveway.,['Air conditioning'],,
169,-37.874504,144.6604258,https://www.domain.com.au/2-2-6-anglia-court-werribee-vic-3030-16075291,2/2-6 Anglia Court Werribee VIC 3030,360,3,2,1,Apartment / Unit / Flat,Spacious and Easy Maintenance Living!,"Situated in a quiet and peaceful pocket of Werribee, we are pleased to offer this beautiful home for lease!","['INSIDE:', 'Built in wardrobes', 'Dishwasher', 'Bathtub', 'Gas Appliances', 'Ducted Heating', 'Split System Air Conditioning', 'Gas Hot Water', 'Ensuite(s)', 'OUTSIDE:', 'Courtyard', 'Remote Garage', 'Secure Parking', 'Fully fenced']",,
170,-37.7765625,144.9546944,https://www.domain.com.au/2-78-brunswick-road-brunswick-vic-3056-16080386,2/78 Brunswick Road Brunswick VIC 3056,380,2,1,1,Apartment / Unit / Flat,Cute and cosy!,,,,
171,-37.754295,145.059054,https://www.domain.com.au/303-12-powlett-street-heidelberg-vic-3084-16075733,303/12 Powlett Street Heidelberg VIC 3084,450,3,1,1,Apartment / Unit / Flat,Like New Corner Apartment with Leafy Vistas,,,,
172,-37.9320656,145.0414783,https://www.domain.com.au/1-15-gilmour-road-bentleigh-vic-3204-15933472,1/15 Gilmour Road Bentleigh VIC 3204,450,2,1,1,House,SPACIOUS TWO BEDROOM HOUSE,,,,
173,-37.8357693,144.9923153,https://www.domain.com.au/5-48-darling-street-south-yarra-vic-3141-16047878,5/48 Darling Street South Yarra VIC 3141,650,3,1,1,Apartment / Unit / Flat,Living on top of the Hill!,,"['Air conditioning', 'Heating', 'Built in wardrobes', 'Close to transport', 'Close to shops', 'Intercom', 'Floorboards', 'Dishwasher']",,
174,-37.7956696,144.8333999,https://www.domain.com.au/3-couch-street-sunshine-vic-3020-15924065,3 Couch Street Sunshine VIC 3020,410,2,1,1,House,"3 Couch Street, Sunshine, 3020",,,,
175,-37.9359573,145.0638306,https://www.domain.com.au/60-wingate-street-bentleigh-east-vic-3165-16051655,60 Wingate Street Bentleigh East VIC 3165,615,3,2,2,House,3 Bedroom Home in Great Locale,*** YOU MUST PRE-REGISTER TO ATTEND THE SCHEDULED INSPECTION ***,"['Air conditioning', 'Alarm System', 'Fully fenced', 'Built in wardrobes', 'Floorboards', 'Gas Heating', 'Out door entertaining area']",,
176,-37.8502986,145.135083,https://www.domain.com.au/202-11-foundation-boulevard-burwood-east-vic-3151-16072284,202/11 Foundation Boulevard Burwood East VIC 3151,460,2,1,1,Apartment / Unit / Flat,GARDEN APARTMENT FOR RENT!! ***Two bedroom with study***,,,,
177,-37.7530631,144.8074157,https://www.domain.com.au/3-chestnut-drive-st-albans-vic-3021-16081212,3 Chestnut Drive St Albans VIC 3021,390,4,1,4,House,Walk To Ginifer Train Station,"This 4-bedroom property is packed full of potential. Located in a blue-chip location within walking distance to Ginifer train station, Sunshine Hospital, Holy Eucharist Primary and Jackson school. The property itself offers 4 good size bedrooms, a spacious lounge area, dining area, central bathroom, separate toilet and garage",,,
178,-37.8231797,145.0078448,https://www.domain.com.au/283a-burnley-street-richmond-vic-3121-16064303,283A Burnley Street Richmond VIC 3121,1500,1,1,1,Townhouse,"SPECTACULAR 4 STOREY TOWNHOUSE WITH ROOFTOP TERRACE, CITY VIEWS, LIFT AND TURN TABLE PARKING!",Angela Clark,,,
179,-37.93645009999999,144.9982116,https://www.domain.com.au/71b-orlando-street-hampton-vic-3188-16056805,71B Orlando Street Hampton VIC 3188,1500,4,2,2,Townhouse,BEACH LIFESTYLE  BRAND NEW LUXURY RESIDENCE,"Situated in this prized beach side location this exceptional family town residence is sure to impress with 3 generous bedrooms, spacious living and quality appointments throughout.
The living is easy with a wide entrance hallway with Oak engineered floor boards, downstairs powder room, spacious open plan family living room opening to the rear deck area and low maintenance garden. Features a large",,,
180,-37.7325769,144.8790187,https://www.domain.com.au/601a-keilor-road-niddrie-vic-3042-16063355,601A Keilor Road Niddrie VIC 3042,550,3,1,1,Apartment / Unit / Flat,"Massive, fully renovated apartment with city views",,"['Air conditioning', 'Heating', 'Built in wardrobes', 'Close to transport', 'Close to shops', 'Close to schools', 'Split System']",,
181,-37.8694419,145.2353723,https://www.domain.com.au/108b-400-burwood-highway-wantirna-south-vic-3152-16074004,108B/400 Burwood Highway Wantirna South VIC 3152,430,3,1,1,Apartment / Unit / Flat,EASY LIVING - KUBIX APARTMENTS,,"['Air conditioning', 'Heating', 'Built in wardrobes', 'Close to transport', 'Close to shops', 'Swimming Pool', 'Close to schools', 'Ensuite', 'Car Parking - Basement', 'Carpeted', 'Openable Windows']",,
182,-37.7699565,144.9918634,https://www.domain.com.au/8-4-mccracken-avenue-northcote-vic-3070-16064578,8/4 McCracken Avenue Northcote VIC 3070,460,3,1,1,Apartment / Unit / Flat,Crack The Code,Stacey Kelegouris,['Pets Allowed'],,
183,-37.8303231,144.9466244,https://www.domain.com.au/215-253-normanby-road-south-melbourne-vic-3205-16034152,215/253 Normanby Road South Melbourne VIC 3205,735,1,1,0,Apartment / Unit / Flat,2 bedroom 2 bathroom with access to 38 unmistakeable amenities,Ken Kwok,"['Alarm System', 'Dishwasher', 'Gym', 'Air conditioning', 'Floorboards', 'Intercom', 'Built in wardrobes', 'Pets Allowed', 'Broadband internet access', 'Heating', 'Swimming Pool', 'Secure Parking', 'Energy Eff. Rating: 5']",,
184,-37.9497953,145.0385751,https://www.domain.com.au/34-donald-st-highett-vic-3190-16081654,34 Donald St Highett VIC 3190,650,3,2,2,House,For Inspection details contact Enisa Redzic on 9598 1111 or eredzic@hodges.com.au,Enisa Redzic,,,
185,-37.920037,145.1438132,https://www.domain.com.au/35-sarton-road-clayton-vic-3168-16011149,35 Sarton Road Clayton VIC 3168,160,1,1,0,House,House Sharing - Large room with all bills included!,,"['Built in wardrobes', 'Furnished', 'Heating', 'Rent Includes Utilities']",,
186,-37.7155136,145.0389807,https://www.domain.com.au/36-clunes-street-kingsbury-vic-3083-15616589,36 Clunes Street Kingsbury VIC 3083,400,3,1,1,House,PICTURE PERFECT!,,"['Air conditioning', 'Built in wardrobes', 'Secure Parking']",,
187,-37.9280946,145.0156878,https://www.domain.com.au/27-creswick-st-brighton-east-vic-3187-15970795,27 Creswick St Brighton East VIC 3187,,4,2,2,House,SUPERIOR FAMILY LIVING IN A DREAM LOCATION,,,,
188,-37.8922801,145.0367416,https://www.domain.com.au/2-135-booran-road-caulfield-south-vic-3162-15992186,2/135 Booran Road Caulfield South VIC 3162,500,3,1,2,Apartment / Unit / Flat,TRANQUIL COURTYARD,,"['INSIDE:', 'Built in wardrobes', 'Dishwasher', 'Split System Heating', 'Split System Air Conditioning', 'OUTSIDE:', 'Balcony', 'Courtyard']",,
189,-37.811416,144.9608504,https://www.domain.com.au/907-5-sutherland-street-melbourne-vic-3000-16019481,907/5 Sutherland Street Melbourne VIC 3000,450,1,1,0,Apartment / Unit / Flat,FULLY FURNISHED PERFECT PLACE TO CALL HOME!,,"['In Ground Pool', 'Balcony', 'Indoor Spa', 'Split System Heating', 'Split System AirCon', 'Gym', 'Built in wardrobes', 'Intercom', 'Furnished']",,
190,-37.8120899,144.9835967,https://www.domain.com.au/203-150-clarendon-street-east-melbourne-vic-3002-12929838,203/150 Clarendon Street East Melbourne VIC 3002,950,2,2,1,Apartment / Unit / Flat,Unrivalled Living in Premier Location,Jordan Palma,"['INSIDE:', 'Gym', 'Intercom', 'Study', 'Floorboards', 'Built in wardrobes', 'Dishwasher', 'Ducted Heating', 'Ducted Air Conditioning', 'OUTSIDE:', 'Balcony', 'Remote Garage', 'Secure Parking', 'Swimming Pool', 'OTHER:', 'Furnished']",,
191,-37.8197736,145.0046025,https://www.domain.com.au/204-2-6-lord-street-richmond-vic-3121-14778881,204/2-6 Lord Street Richmond VIC 3121,380,1,1,0,Apartment / Unit / Flat,Richmond's Inner-City lifestyle,,"['INSIDE:', 'Built in wardrobes', 'Dishwasher', 'OUTSIDE:', 'Balcony']",,
192,-37.8644943,145.0029153,https://www.domain.com.au/26-55-alexandra-st-st-kilda-east-vic-3183-16067159,26/55 Alexandra St St Kilda East VIC 3183,330,2,1,1,Apartment / Unit / Flat,"You'll love the lifestyle, location and light",Leasing Concierge,,,
193,-37.9089299,144.7726397,https://www.domain.com.au/103-haze-drive-point-cook-vic-3030-12752808,103 Haze Drive Point Cook VIC 3030,430,4,2,2,House,Brand new free flowing floor plan.,Please call 0401 933 139 for a private inspection. ,"['Car Accom: Double Garage', 'Heating: Gas Ducted Heating', 'Cooling: Evaporative Cooling', 'Cooking: Gas Hotplates and Electric Oven']",,
194,-37.7394706,144.9276121,https://www.domain.com.au/1a-progress-street-strathmore-vic-3041-16079335,1A Progress Street Strathmore VIC 3041,600,3,1,1,House,WARM AND WELCOMING FAMILY HOME AWAITS!!,,"['Secure Parking', 'Deck', 'Fully fenced', 'Split System Heating', 'Split System AirCon', 'Built in wardrobes', 'Dishwasher', 'Ducted Heating', 'Ensuite']",,
195,-37.7860962,144.9584518,https://www.domain.com.au/3-311-royal-pde-melbourne-vic-3000-15786868,3/311 Royal Pde. Melbourne VIC 3000,520,2,1,0,Apartment / Unit / Flat,INSPECT & MOVE IN NOW,,,,
196,-37.8212116,144.942503,https://www.domain.com.au/1610s-883-collins-street-docklands-vic-3008-16045684,1610S/883 Collins Street Docklands VIC 3008,620,2,2,1,Apartment / Unit / Flat,Stylish Two Bedrooms Apartment by the Harbour!!,,,,
197,-37.7569856,144.9512666,https://www.domain.com.au/43a-thistle-street-brunswick-vic-3056-16048708,43A Thistle Street Brunswick VIC 3056,560,3,2,2,House,Heart of Brunswick,Helena  Eglezos,"['Split System Air Con', 'Split System Heating', 'Built in wardrobes', 'Dishwasher', 'Secure Parking']",,
198,-37.8246544,145.0634276,https://www.domain.com.au/28-russell-street-camberwell-vic-3124-16003445,28 Russell Street Camberwell VIC 3124,1600,5,3,2,House,CONTACT FOR PRIVATE INSPECTION,Extraordinary Light and Space,,,
199,-37.8133446,144.9425312,https://www.domain.com.au/805-8-marmion-place-docklands-vic-3008-16070708,805/8 Marmion Place Docklands VIC 3008,470,1,1,1,Apartment / Unit / Flat,Large 1 bed + Study in the highly sought after H1 complex!,,"['Study', 'Dishwasher', 'Built in wardrobes', 'Gym', 'Ducted Heating', 'Ducted Cooling', 'Intercom', 'Secure Parking', 'Balcony']",,
200,-37.8731137,144.9955002,https://www.domain.com.au/11-66-70-grosvenor-street-balaclava-vic-3183-11003011,11/66-70 Grosvenor Street Balaclava VIC 3183,450,2,2,1,Apartment / Unit / Flat,Bright and spacious 2 bedroom apartment,"Tenants will be impressed by this stylishly renovated two bedroom apartment in trendy Balaclava. Elevated on the second floor and situated at the rear of a quiet, secure and well maintained complex, this property provides tenants with the perfect mix of privacy and comfort.","['Car Accom: Single Off-Street Parking', 'Heating: Reverse Cycle Air Conditioning', 'Cooling: Reverse Cycle Air Conditioning', 'Pool/Spa Count: 0']",,
201,-37.950894,145.171687,https://www.domain.com.au/4-35-corrigan-road-springvale-vic-3171-16073036,4/35 Corrigan Road Springvale VIC 3171,330,2,1,0,Apartment / Unit / Flat,TWO BEDROOM UNIT,,,,
202,-37.741547,144.899405,https://www.domain.com.au/3-142-cooper-street-essendon-vic-3040-16048234,3/142 Cooper Street Essendon VIC 3040,510,3,2,2,Townhouse,SPACIOUS TOWNHOUSE IN PRIME LOCATION,,,,
203,-37.9176762,144.6297907,https://www.domain.com.au/20-chancery-road-werribee-vic-3030-15991378,20 Chancery Road Werribee VIC 3030,410,4,2,4,House,Take A Chance!,"If you are looking for a large family double story home with modern conveniences and quality finishing's, then look no further.
Comprising:","['Dishwasher', 'Built in wardrobes', 'Air-Conditioner', 'Ducted Heating', 'Remote Garage']",,
204,-37.8650204,144.9876674,https://www.domain.com.au/135-inkerman-street-st-kilda-vic-3182-8261248,135 Inkerman Street St Kilda VIC 3182,812,2,2,2,Apartment / Unit / Flat,&apos;St Kilda Residence&apos; - Fully Furnished. Stay from 1 month. Includes all utilities &amp; Foxtel,"Furnished apartments include all utilities, Foxtel (30+ channels) &amp; unlimited local and national calls. 100's to choose, Book online.","['Dishwasher', 'Balcony', 'Air conditioning']",,
205,-37.7360773,144.9054807,https://www.domain.com.au/g01-82-bulla-road-strathmore-vic-3041-14682211,G01/82 Bulla Road Strathmore VIC 3041,350,2,1,1,Apartment / Unit / Flat,Stunning one bedroom with enormous courtyard!,,,,
206,-37.6346947,145.0091661,https://www.domain.com.au/12-macfie-avenue-epping-vic-3076-16017855,12 MacFie Avenue Epping VIC 3076,550,4,2,1,House,"**APPROVED APPLICATION IN PROCESS!! **
LARGE FAMILY HOME",,"['Air conditioning', 'Close to transport', 'Close to shops', 'Alarm System', 'Close to schools', 'Secure Parking', 'Solar panels', 'Dishwasher']",,
207,-37.8210361,144.8870044,https://www.domain.com.au/607-125-francis-street-yarraville-vic-3013-16058692,607/125 Francis Street Yarraville VIC 3013,600,3,2,1,Apartment / Unit / Flat,Short Term and Fully Furnished,,,,
208,-37.78174569999999,144.9339339,https://www.domain.com.au/71-flemington-street-flemington-vic-3031-15979567,71 Flemington Street Flemington VIC 3031,450,2,1,0,House,Lovely 2 Bedroom Cottage with Lawn Mowing INCLUDED!,,,,
209,-38.0675901,145.2656368,https://www.domain.com.au/6-naila-court-cranbourne-north-vic-3977-16042045,6 Naila Court Cranbourne North VIC 3977,450,3,2,2,House,Family Home In Great Location!,Casey Rental Department,,,['545']
210,-37.8751741,144.9870649,https://www.domain.com.au/4-21-milton-street-elwood-vic-3184-15900323,4/21 Milton Street Elwood VIC 3184,365,2,1,1,Apartment / Unit / Flat,LARGE TWO BEDROOM APPARTMENT,"""** YOU MUST CLICK ON ""EMAIL AGENT"" OR ""BOOK INSPECTION"" TO REGISTER FOR AN INSPECTION**""",,,
211,-37.7395241,145.0237466,https://www.domain.com.au/118-albert-street-preston-vic-3072-16080712,118 Albert Street Preston VIC 3072,415,2,2,2,House,Great Location!,,,,
212,-37.8097514,144.9626141,https://www.domain.com.au/3003-228-la-trobe-street-melbourne-vic-3000-15295297,3003/228 La Trobe Street Melbourne VIC 3000,825,1,1,0,Apartment / Unit / Flat,Fully Furnished Apartment With Fab Views,,['Furnished'],,
213,-37.7729202,144.9973724,https://www.domain.com.au/302-44-eastment-street-northcote-vic-3070-16045970,302/44 Eastment Street Northcote VIC 3070,520,2,2,1,Apartment / Unit / Flat,Two Bedroom Apartment,** BOOK INSPECTION ONLINE **,"['Split System Air Con', 'Split System Heating', 'Balcony / Deck', 'Built in wardrobes', 'Dishwasher', 'Floorboards', 'Remote Garage', 'Secure Parking']",,
214,-37.7543659,145.0533732,https://www.domain.com.au/405-58-myrtle-street-ivanhoe-vic-3079-16041869,405/58 Myrtle Street Ivanhoe VIC 3079,430,2,2,1,Apartment / Unit / Flat,Modern Luxurious apartment !!,,,,
215,-37.7240928,144.9463792,https://www.domain.com.au/2-2-windsor-street-pascoe-vale-vic-3044-16025972,2/2 Windsor Street Pascoe Vale VIC 3044,455,2,1,1,Townhouse,A cut above the rest,** BOOK INSPECTION ONLINE **,,,
216,-37.9236634,145.1259226,https://www.domain.com.au/2-82-kanooka-grove-clayton-vic-3168-16027125,2/82 Kanooka Grove Clayton VIC 3168,565,2,2,0,Townhouse,MODERN THREE BEDROOM TOWNHOUSE,"Register now to view this modern three bedroom townhouse located within walking distance to Monash University, Clayton Train Station, Bus stops, Clayton Shopping Strip, Parks and Reserves. It is also only a short drive to Chadstone Shopping Centre, M-City, Melbourne CBD and more.","['Split System Air Con', 'Split System Heating', 'Built in wardrobes', 'Garden / Courtyard', 'Dishwasher', 'Shed']",,
217,-37.7679422,145.0322212,https://www.domain.com.au/4-5-edward-court-ivanhoe-vic-3079-16066060,4/5 Edward Court Ivanhoe VIC 3079,700,3,1,1,Townhouse,A peaceful oasis next to Darebin Creek,,,,
218,-37.9361328,145.0695165,https://www.domain.com.au/1-kenlon-street-bentleigh-east-vic-3165-16054462,1 Kenlon Street Bentleigh East VIC 3165,650,3,1,1,House,Beautiful 3 bedroom house in a very quiet street,,,['664'],['853']
219,-37.6426947,144.9127984,https://www.domain.com.au/3-elder-close-meadow-heights-vic-3048-15912103,3 Elder Close Meadow Heights VIC 3048,480,4,2,2,House,Great Family Home,,['Laundry'],,
220,-37.8936442,145.0359234,https://www.domain.com.au/3-bent-street-caulfield-south-vic-3162-16055338,3 Bent Street Caulfield South VIC 3162,695,2,1,2,House,THIS BRILLIANT FAMILY HOME AWAITS YOU.,"*** YOU MUST PRE-REGISTER TO ATTEND THE SCHEDULED INSPECTION ***
Located in the Caulfield South Primary Zone, is this fabulous, 3/4 bedroom property, just waiting for you to call it home. The well maintained family home offers 3 bedrooms with built in robes, (the 4th room can be used as a bedroom, office, study or studio), 2 functional living zones, one for formal living and dining and one off the","['Ensuite', 'Air conditioning', 'Garden / Courtyard', 'Shed', 'Fully fenced', 'Built in wardrobes', 'Dishwasher', 'Gas Heating', 'Internal Laundry']",,
221,-37.7385738,144.8766746,https://www.domain.com.au/5-mainridge-vista-keilor-east-vic-3033-16054957,5 Mainridge Vista Keilor East VIC 3033,430,3,1,1,House,Exquisite Location Valley Lake Estate,,"['Car Accom: Double Garage', 'Pool/Spa Count: 0']",,
222,-37.7290087,145.2104508,https://www.domain.com.au/15a-albert-road-north-warrandyte-vic-3113-16038772,15A Albert Road North Warrandyte VIC 3113,385,3,1,4,Apartment / Unit / Flat,"WHAT A BEAUTY,  INCLUSIVE OF UTILITIES !","Very secure two bedroom unit in the gorgeous sought after area of North Warrandyte, gas and electricity are included in rental as this lovely spacious unit is under another residence. This unit comes with private courtyard, car space, it is clean and tidy, walk to river as it is sited right in your back yard !",,,
223,-37.7452636,144.8912814,https://www.domain.com.au/125-spencer-street-essendon-vic-3040-16025192,125 Spencer Street Essendon VIC 3040,,4,2,2,House,APPLICATION LINK: https://app.snug.com/apply/barryplantessendon,"In a prime location, this light filled spacious residence delivers a wonderful low maintenance lifestyle. With free flowing interior highlights, three large bedrooms upstairs master with full ensuite and WIR, downstairs offers a spacious lounge, seperate study, stylish kitchen overlooking the meals and courtyard, powder room, ducted cooling and heating, storeroom under the stairs, timber floor","['Study', 'Built in wardrobes', 'Courtyard', 'Dishwasher', 'Ducted Cooling', 'Ducted Heating', 'Floorboards', 'Ensuite', 'Remote Garage', 'Open Spaces']",,
224,-37.827276,144.9590267,https://www.domain.com.au/3211-283-city-road-southbank-vic-3006-14218073,3211/283 City Road Southbank VIC 3006,480,2,2,0,Apartment / Unit / Flat,The Bank: 32nd Floor - Modern Apartment with Great Views!,We are COVID-19 friendly. You keep your space and I will keep mine. Please contact our agent for your personal tour of this home/apartment today.,"['Secure Parking', 'Swimming Pool', 'Air conditioning', 'Broadband internet access', 'Built in wardrobes', 'Dishwasher', 'Gym', 'Intercom']",,
225,-37.8091709,144.966801,https://www.domain.com.au/3704-318-russell-street-melbourne-vic-3000-16077210,3704/318 Russell Street Melbourne VIC 3000,620,2,1,0,Apartment / Unit / Flat,FURNISHED 2 Bed 1 Bath in ABODE 318! With Amazing View!,,"['Close to transport', 'Close to shops', 'Swimming Pool', 'Close to schools', 'City Views', 'Furnished', 'Security System']",,
226,-37.7885815,144.8046245,https://www.domain.com.au/28-murray-street-sunshine-west-vic-3020-16051497,28 Murray Street Sunshine West VIC 3020,430,3,1,4,House,PERFECT 3 BEDROOM FAMILY HOME,"A three-bedroom home situated in the best pocket of Sunshine west. This semi renovated home offers a warm and inviting interior, boasting great living accommodation. The impressive floor plan comprises of a formal lounge and kitchen/dining area. 3 good-sized bedrooms with brand new carpets throughout, and mirror BIR's. A central fully renovated bathroom, coupled with stunning tiles to ceiling. An",,,
227,-37.7986958,145.1957386,https://www.domain.com.au/6-heads-road-donvale-vic-3111-16027997,6 Heads Road Donvale VIC 3111,980,4,2,0,House,IMPRESSIVE FAMILY RESIDENCE,,,,['4035']
228,-37.8367701,145.0011815,https://www.domain.com.au/14-43-kensington-road-south-yarra-vic-3141-15987704,14/43 Kensington Road South Yarra VIC 3141,370,1,1,1,Apartment / Unit / Flat,Top floor apartment on Kensington Road,,,,
229,-37.855997,145.00721,https://www.domain.com.au/49-highbury-grove-prahran-vic-3181-16056833,49 Highbury Grove Prahran VIC 3181,1100,1,1,1,House,STUNNING 3 BEDROOM HOME IN QUIET PRAHRAN POCKET!!!,Guy Fredman,,,
230,-38.11633459999999,145.307612,https://www.domain.com.au/cranbourne-east-vic-3977-14972329,Cranbourne East VIC 3977,,3,1,2,House,Rent to Own Today! (Full Time Employment Required $75k+ per year),"No Deposit, No Worries!","['Ensuite(s)', 'Secure Parking', 'Air conditioning', 'Built in wardrobes', 'Pets Allowed', 'Broadband internet access', 'Dishwasher', 'Fully fenced']",,
231,-37.9705224,145.1580819,https://www.domain.com.au/11-99a-athol-road-springvale-south-vic-3172-16072101,11/99A Athol Road Springvale South VIC 3172,360,2,1,1,Apartment / Unit / Flat,Walking distance to schools and shops!,,,,
232,-37.805589499999996,144.9579863,https://www.domain.com.au/202-9-13-o-connell-street-north-melbourne-vic-3051-16066203,202/9-13 O'Connell Street North Melbourne VIC 3051,395,1,1,0,Apartment / Unit / Flat,Great Location Near Vic Market,Martine Cullen,,,
233,-37.9136466,145.0682673,https://www.domain.com.au/18-latham-street-bentleigh-east-vic-3165-15726132,18 Latham Street Bentleigh East VIC 3165,860,2,1,2,House,"1 WEEK RENT FREE!
Newly renovated 4 bedroom, 3 bathroom family home right in the McKinnon School zone",Nigel Chee,"['INSIDE:', 'Floorboards', 'Dishwasher', 'Bathtub', 'Gas Appliances', 'Ducted Heating', 'OUTSIDE:', 'Outdoor Entertainment Area']",,
234,-37.8232188,145.0334045,https://www.domain.com.au/302-1-cook-street-hawthorn-vic-3122-16067480,302/1 Cook Street Hawthorn VIC 3122,1100.0,3,2,1,Apartment / Unit / Flat,Beautifully Designed,,,,
235,-37.8002067,145.0546349,https://www.domain.com.au/2-64-harp-road-kew-east-vic-3102-15989409,2/64 Harp Road Kew East VIC 3102,440,2,1,1,Apartment / Unit / Flat,MAKE HARP ROAD YOUR HOME,"This gorgeous villa unit situated in a small block of 3 ticks all the lifestyle boxes. Comprising, formal entrance hallway which leads to a spacious formal lounge/dining with wall to wall carpet in a neutral tone. The well appointed separate kitchen has electric cooking, breakfast bar and many storage cupboards. There are two large double bedrooms with built in robes and wall to wall carpet, a",,,
236,-37.8729568,145.1822798,https://www.domain.com.au/99-capital-avenue-glen-waverley-vic-3150-16059921,99 Capital Avenue Glen Waverley VIC 3150,625,5,2,2,House,Picture Perfect in Highvale Secondary Zone (STSA).,,,,
237,-37.83513689999999,144.9686589,https://www.domain.com.au/78-palmerston-crescent-south-melbourne-vic-3205-16081321,78 Palmerston Crescent South Melbourne VIC 3205,820,4,2,0,House,"Immaculate, Double Storey Home in Lake & Gardens Precinct",Neil Harris,,,
238,-37.75655440000001,144.9099822,https://www.domain.com.au/6-181-183-buckley-street-essendon-vic-3040-15035265,6/181-183 Buckley Street Essendon VIC 3040,450,3,1,1,Townhouse,These near new homes have everything you need !,,,,
239,-37.796633,144.918708,https://www.domain.com.au/17-kirk-street-kensington-vic-3031-16040666,17 Kirk Street Kensington VIC 3031,500,2,1,2,Townhouse,LIGHT FILLED TWO STOREY TOWNHOUSE,"This townhouse has been freshly painted and new carpet throughout offers two bedrooms with built in robes - main with access to bathroom and balcony, has an open plan tiled lounge, kitchen and dining area overlooking the rear courtyard, ducted heating, split system heating and cooling, deep bath, a remote single garage and massive rooftop storage. Located centrally to all amenities - walk to train",,,
240,-37.7126518,144.9236128,https://www.domain.com.au/30-plumpton-avenue-oak-park-vic-3046-15942318,30 Plumpton Avenue Oak Park VIC 3046,590,3,1,1,House,"30 Plumpton Avenue, Oak Park",,"['Ensuite', 'Air conditioning', 'Alarm System', 'Secure Parking', 'Garden / Courtyard', 'Fully fenced', 'Built in wardrobes', 'Floorboards', 'Out door entertaining area', 'Internal Laundry']",,
241,-37.8483275,145.1099967,https://www.domain.com.au/1-2-clan-brae-avenue-burwood-vic-3125-16042809,1/2 Clan Brae Avenue Burwood VIC 3125,430,2,1,1,Apartment / Unit / Flat,2 Bedroom unit in good location,,"['Air conditioning', 'Gas Enabled']",,
242,-37.9295135,145.041263,https://www.domain.com.au/12b-mckittrick-street-bentleigh-vic-3204-15977980,12B McKittrick Street Bentleigh VIC 3204,1000.0,4,2,2,Townhouse,UNRIVALLED IN QUALITY & SUPERIOR SPACE,"Enjoy a wealth of space and timeless luxury in this superb 4 bedroom 3 bathroom street front residence. Impressive with its polished floors, high ceilings and marble benchtops, this high calibre haven enjoys a striking entry opening to a wide entry foyer, sought after downstairs home office or 5th bedroom, a fitted family-size laundry, powder room, stylish dining with fire place opening to a","['Study', 'Built in wardrobes', 'Dishwasher', 'Ducted Cooling', 'Ducted Heating', 'Floorboards', 'Fully fenced', 'Intercom', 'Outdoor Entertainment Area', 'Remote Garage', 'Rumpus Room', 'Secure Parking']",,
243,-37.7667667,144.9994415,https://www.domain.com.au/12-442-high-street-northcote-vic-3070-16036327,12/442 High Street Northcote VIC 3070,380,1,1,0,Apartment / Unit / Flat,Next to Northcote Shopping Plaza - Oversized one bedroom apartment with new carpet and freshly painted in boutique complex,,"['Balcony', 'Built in wardrobes', 'Dishwasher', 'Reverse Cycle Air Conditioning']",,
244,-37.7705144,144.8310803,https://www.domain.com.au/1-4-hassett-street-sunshine-north-vic-3020-15996307,1/4 Hassett Street Sunshine North VIC 3020,610,4,2,1,Townhouse,Brand New,,"['Secure Parking', 'Ensuite(s)']",,
245,-37.8176013,145.1186637,https://www.domain.com.au/2201-850-whitehorse-road-box-hill-vic-3128-16061704,2201/850 Whitehorse Road Box Hill VIC 3128,550,3,2,2,Apartment / Unit / Flat,2 Bedroom Apartment in Great Location,,,,
246,-37.9173585,145.0318113,https://www.domain.com.au/12-267-centre-road-bentleigh-vic-3204-16072066,12/267 Centre Road Bentleigh VIC 3204,420,2,2,1,Apartment / Unit / Flat,Super Convenient in the Centre Rd Action,"Enjoy all that Bentleigh has to offer then come home and relax in your light, bright stylish abode located to the rear of the block giving you peace, privacy and security. It features two good sized bedrooms to the upper level with shared bathroom and toilet. Downstairs is a large living space with dining area and large fully functional kitchen. There is a laundry and powder room to this level",,,
247,-37.7705144,144.8310803,https://www.domain.com.au/2-4-hassett-street-sunshine-north-vic-3020-15996336,2/4 Hassett Street Sunshine North VIC 3020,560,2,2,1,Townhouse,Brand New,,"['Ensuite(s)', 'Secure Parking']",,
248,-37.7786173,144.9393063,https://www.domain.com.au/814-91-galada-avenue-parkville-vic-3052-12635687,814/91 Galada Avenue Parkville VIC 3052,495,2,2,1,Apartment / Unit / Flat,Two Bedroom Apartment in PARKVILLE,"Conveniently located approximately 4km from Melbournes CBD, the Metro train network can be accessed at Royal Park Station; the No. 55 tram stops in Royal Park; and Bus 505 travelling direct to the University of Melbourne and the CBD, stops on Cade Way (within 50 metres approximately of the front lobby).","['Balcony', 'Outdoor Entertainment Area', 'Swimming Pool - In Ground', 'Secure Parking', 'Built in wardrobes', 'Gym', 'Intercom', 'Dishwasher', 'Floorboards', 'Pay TV Access', 'Split-System Air Conditioning', 'Energy Eff. Rating: 6']",,
249,-37.8145405,145.1370014,https://www.domain.com.au/8-patrick-street-box-hill-north-vic-3129-16043209,8 Patrick Street Box Hill North VIC 3129,440,3,1,2,House,Great Location & Low cost Energy Bills,,,,
250,-37.802927,144.9606235,https://www.domain.com.au/car-space-6-leicester-street-carlton-vic-3053-11560577,Car Space/6 Leicester Street Carlton VIC 3053,200,1,1,0,House,CAR SPACE FOR RENT!,Car space for rent in an excellent location.,['Secure Parking'],,
251,-38.110963,145.2802494,https://www.domain.com.au/18g-scott-street-cranbourne-vic-3977-16065944,18G Scott Street Cranbourne VIC 3977,580,3,2,2,Townhouse,Brand new Town Residence,,,,
252,-37.8390501,145.0466244,https://www.domain.com.au/g01-428-tooronga-rd-hawthorn-east-vic-3123-16012614,G01/428 Tooronga Rd Hawthorn East VIC 3123,575,2,1,1,Apartment / Unit / Flat,UNDER APPLICATION - PENDING,"This stunning two-bedroom apartment is situated on the ground floor in a boutique block. With a spacious, leafy courtyard located in the heart of Hawthorn East, this property presents the perfect inner-city lifestyle. ","['Secure Parking', 'Air conditioning', 'Garden / Courtyard']",,
253,-37.94733069999999,145.1541397,https://www.domain.com.au/springvale-vic-3171-16045320,Springvale VIC 3171,265,1,1,1,Apartment / Unit / Flat,Perfect Location!,,,,
254,-37.7506033,144.8893256,https://www.domain.com.au/2-2-diamond-street-essendon-west-vic-3040-16013116,2/2 Diamond Street Essendon West VIC 3040,750,4,3,0,Townhouse,APPLICATION LINK: https://app.snug.com/apply/barryplantessendon,"Set over two levels, this new three bedroom, study, two bathroom townhouse offers a superb lifestyle in a prime location, nearby premier schools, Steele Creek and the Maribyrnong River. Impeccably presented and drenched in natural light, the heart of the home reveals a large gourmet kitchen featuring stone bench-tops, marble-style splashbacks, Smeg appliances, soft-close cabinetry. Overlooking","['Split System Air Con', 'Alarm System', 'Study', 'Ensuite', 'Floorboards', 'Split System Heating', 'Intercom', 'Remote Garage', 'Built in wardrobes', 'Balcony / Deck']",,
255,-37.8939976,144.6456169,https://www.domain.com.au/11-quartok-avenue-werribee-vic-3030-16033470,11 Quartok Avenue Werribee VIC 3030,330,3,2,2,House,"Family Sized Living, Close to all Amenities",,,,
256,-37.766349,145.03563,https://www.domain.com.au/5-8-oriel-road-ivanhoe-vic-3079-16024733,5/8 Oriel Road Ivanhoe VIC 3079,570,3,2,1,Townhouse,LOW MAINTENANCE LIVING IN A FABULOUS LOCATION,,"['Garden / Courtyard', 'Dishwasher']",,
257,-37.7741591,144.9591655,https://www.domain.com.au/207-17-union-street-brunswick-vic-3056-16071911,207/17 Union Street Brunswick VIC 3056,475,1,1,0,Apartment / Unit / Flat,"Fully Furnished, Modern Amenities in a Funky Location!",,"['Air conditioning', 'Intercom', 'Balcony / Deck', 'Built in wardrobes', 'Dishwasher', 'Floorboards', 'Internal Laundry', 'Furnished']",,
258,-37.728229,144.985401,https://www.domain.com.au/1-15-furzer-street-preston-vic-3072-12892383,1/15 Furzer Street Preston VIC 3072,550,3,2,2,Townhouse,***PLEASE REGISTER YOUR DETAILS ONLINE PRIOR TO INSPECTION***,"Immaculate Townhouse in a Fabulous Family Locale
This custom built townhouse that holds its own street frontage is situated in a quiet neighborhood, timber staircase feature on entry, three bedrooms all with BIR's, dual entry large central bathroom, spacious formal lounge with adjoining dining area, fully appointed kitchen/meals area with gas appliances and dishwasher. Additional features include",,,
259,-37.767489,144.9201297,https://www.domain.com.au/17-15-moore-street-moonee-ponds-vic-3039-16051889,17/15 Moore Street Moonee Ponds VIC 3039,400,2,1,1,Apartment / Unit / Flat,"Luxury Living, Great Sized One Bedder!",,['Secure Parking'],,
260,-37.9491326,145.0410716,https://www.domain.com.au/239-284-286-highett-road-highett-vic-3190-16068811,239/284-286 Highett Road Highett VIC 3190,450,2,2,1,Apartment / Unit / Flat,***ENTRANCE VIA 75 GRAHAM RD ***,"We are pleased to offer this two bedroom apartment in this magnificent new development with a number of shops all situated right underneath you. The floor plan is flexible and the apartments all have loads of natural light and large balconies. Comprises: main bedroom with built in robes and ensuite and a further second bedroom with built in robes, plus a separate study. Fantastic kitchen with a",,,
261,-37.79486,144.920542,https://www.domain.com.au/51-matthews-mews-kensington-vic-3031-15867956,51 Matthews Mews Kensington VIC 3031,565,2,1,0,Townhouse,Love the Location!,,,,
262,-37.826377,145.0669977,https://www.domain.com.au/4-1-kingsley-street-camberwell-vic-3124-16067581,4/1 Kingsley Street Camberwell VIC 3124,660,2,1,1,Apartment / Unit / Flat,Fully Renovated Private Oasis,,"['INSIDE:', 'Built in wardrobes', 'Dishwasher', 'Split System Heating', 'Split System Air Conditioning']",,
263,-37.7587375,144.9390345,https://www.domain.com.au/601-5-olive-york-way-brunswick-west-vic-3055-15143998,601/5 Olive York Way Brunswick West VIC 3055,430,2,2,1,Apartment / Unit / Flat,2 BEDROOM APARTMENT WITH NATURAL LIGHT!,Rio Bond,"['INSIDE:', 'Gym', 'Intercom', 'Study', 'Floorboards', 'Built in wardrobes', 'Dishwasher', 'Gas Appliances', 'Split System Heating', 'Split System Air Conditioning', 'OUTSIDE:', 'Outdoor Entertainment Area', 'Balcony', 'Secure Parking', 'Spa']",,
264,-37.8121115,144.9949837,https://www.domain.com.au/48-garfield-street-richmond-vic-3121-11595220,48 Garfield Street Richmond VIC 3121,490,3,1,0,House,A Classic SPACIOUS Retro Beauty - Your Inner Suburban Home With Location & Space!,,"['Close To Parklands', 'Close to schools', 'Close to shops', 'Close to transport']",,
265,-37.8197221,145.0775001,https://www.domain.com.au/2-42-hopetoun-avenue-canterbury-vic-3126-16076732,2/42 Hopetoun Avenue Canterbury VIC 3126,650,3,2,2,Apartment / Unit / Flat,Immaculate Rear Residence in Elite Setting - Water Usage Included,Jason Lee,,,
266,-37.8082052,144.9589035,https://www.domain.com.au/206-118-franklin-street-melbourne-vic-3000-16053700,206/118 Franklin Street Melbourne VIC 3000,350,1,1,0,Apartment / Unit / Flat,"The complex is only a short walk to Queen Victoria Market, free city trams, The University of Melbourne and RMIT.",The apartment offers an ingenious floor plan that cleverly utilizes the entire floor area to the maximum. This apartment is truly the agent's pick as one of the best one bedroom layouts in the complex! The open plan living area captures an abundance of natural light through full height doors. The modern and stylish kitchen is finished with a large granite bench top.,,,
267,-37.7050741,145.1037694,https://www.domain.com.au/5-stubley-court-greensborough-vic-3088-15981392,5 Stubley Court Greensborough VIC 3088,500,3,1,2,House,Large home in a quiet court  CLICK ETERNAL LINK FOR VIRTUAL TOUR,,,,
268,-37.8148569,144.939884,https://www.domain.com.au/612-421-docklands-drive-docklands-vic-3008-16077932,612/421 Docklands Drive Docklands VIC 3008,460,1,1,1,Apartment / Unit / Flat,Immaculate One Bedroom,,"['Built in wardrobes', 'Gym', 'Air-Conditioner', 'Intercom', 'Swimming Pool', 'Secure Parking']",,
269,-37.7520813,145.0014176,https://www.domain.com.au/301-1-high-street-preston-vic-3072-16016564,301/1 High Street Preston VIC 3072,420,2,1,1,Apartment / Unit / Flat,Three bedroom apartment on the cusp of Thornbury!,,"['Security Access', 'Secure Parking', 'Study']",,
270,-37.8556739,145.0056257,https://www.domain.com.au/93-chomley-street-prahran-vic-3181-16073392,93 Chomley Street Prahran VIC 3181,685,2,1,0,House,Charming two bedroom home awaits...,,,,
271,-37.7709608,144.9298053,https://www.domain.com.au/30-ngarveno-street-moonee-ponds-vic-3039-16055711,30 Ngarveno Street Moonee Ponds VIC 3039,595,3,2,1,House,Three Bedroom Delight,"Superbly positioned and coveted for its proximity to elite schools, trams, shops and cafes, this period style delight is sure to please. Three beautiful bedrooms, all of excellent dimensions with the front master showcasing a gorgeous bay window and one of three stunning fireplaces framed by an exposed brick feature wall which is also found in the lounge and second bedroom. The recently renovated",,,
272,-37.8103818,144.9638079,https://www.domain.com.au/217-339-swanston-st-melbourne-vic-3000-16055041,217/339 Swanston St Melbourne VIC 3000,380,1,1,0,Apartment / Unit / Flat,TWO BEDROOM APARTMENT IN CBD,Leasing Team,,,
273,-37.7882075,144.9716599,https://www.domain.com.au/711-rathdowne-street-carlton-north-vic-3054-15918442,711 Rathdowne Street Carlton North VIC 3054,610,2,1,0,House,Position perfect character home,"** BOOK INSPECTION ONLINE ** Positioned perfectly on Rathdowne Street across the road from cafes and small grocers, this charming house offers a seamless lifestyle. Full of natural light and boasting character, this house offers two spacious bedrooms, a kitchen with ample cupboard space and room for a dining table, wall heater, a separate lounge room, charming bathroom and laundry facilities, plus",,,
274,-37.851238,145.123104,https://www.domain.com.au/102-326-328-burwood-highway-burwood-vic-3125-16067035,102/326-328 Burwood Highway Burwood VIC 3125,440,2,1,1,Apartment / Unit / Flat,Nice apartment near Deakin University!,,,,
275,-37.7618376,144.9198287,https://www.domain.com.au/g4-20-park-street-moonee-ponds-vic-3039-16030835,G4/20 PARK STREET Moonee Ponds VIC 3039,430,2,2,1,Apartment / Unit / Flat,"""Ultra Modern, Convenient Lifestyle!""","In a unique &amp; stylish complex, be utterly impressed by this modern, spacious, 1 bedroom apartment close to everything Queens Park and Puckle street shops.
Exquisite 'blonde' floating boards feature throughout. Large, open plan living/kitchen with modern, sleek, glass splash back, dishwasher, gas cook top. Bathroom includes incredibly spacious shower, Euro laundry.",,,
276,-37.8101314,144.9587648,https://www.domain.com.au/5901-370-queen-street-melbourne-vic-3000-15293441,5901/370 Queen Street Melbourne VIC 3000,820,2,2,0,Apartment / Unit / Flat,"Sensational Heights, Excellent Lifestyle!","This apartment is excellent. We love it, and think you will, too.","['INSIDE:', 'Gym', 'Intercom', 'Floorboards', 'Built in wardrobes', 'Dishwasher', 'Broadband', 'Gas Appliances', 'Ducted Heating', 'Ducted Air Conditioning', 'Gas Hot Water', 'Ensuite(s)', 'OUTSIDE:', 'Courtyard', 'Swimming Pool', 'Spa', 'LOCATION:', 'City Views']",,
277,-37.755082,144.953848,https://www.domain.com.au/1-42-garnet-st-brunswick-vic-3056-14831537,1/42 Garnet St Brunswick VIC 3056,,2,1,1,Apartment / Unit / Flat,Unit for RENT,"- 2 spacious bedroom
- 1 bathroom with separate toilet
- spacious lounge
- this is a front unit with a huge courtyard
Close to train station, and amenities.",['Ensuite(s)'],,
278,-37.7887336,145.1242631,https://www.domain.com.au/603-5-elgar-court-doncaster-vic-3108-16073027,603/5 Elgar Court Doncaster VIC 3108,470,2,2,1,Apartment / Unit / Flat,Two Bedroom Plus Study With City Views,,,,
279,-37.7919248,144.97976,https://www.domain.com.au/12-496-brunswick-street-fitzroy-north-vic-3068-16076886,12/496 Brunswick Street Fitzroy North VIC 3068,450,1,1,1,Apartment / Unit / Flat,City Living!,,,,
280,-37.850130899999996,144.9922723,https://www.domain.com.au/502-27-macquarie-street-prahran-vic-3181-16042904,502/27 Macquarie Street Prahran VIC 3181,440,3,1,0,Apartment / Unit / Flat,Ultra Stylish Apartment With Quality Finishes & CBD Views,Tom Koller,,,
281,-37.826696,145.0341556,https://www.domain.com.au/101-567-glenferrie-road-hawthorn-vic-3122-16077459,101/567 Glenferrie Road Hawthorn VIC 3122,500,3,2,4,House,Location meets luxury,Pyper Byrne,,,
282,-37.816228,144.9532465,https://www.domain.com.au/1706-200-spencer-street-melbourne-vic-3000-16009666,1706/200 Spencer Street Melbourne VIC 3000,854,1,1,1,Apartment / Unit / Flat,'Neo' - Fully Furnished. Stay from 1 month. Includes all utilities.,,,,
283,-37.7670198,144.980567,https://www.domain.com.au/3-132-nicholson-street-brunswick-east-vic-3057-16064390,3/132 Nicholson Street Brunswick East VIC 3057,785,3,2,0,Townhouse,SEE THE VISION AND BEAT THE COMPETITION!,"An opportunity exists to lease what is arguably the most exclusive townhouse in Brunswick East.
Situated a stone throw from the 96 tram line directly to the CBD and conveniently located and designed around sleek style and state of the art design, is this brand new three bedroom two bathroom townhouse with your own large private courtyard perfect for entertaining.
Built with privacy in mind, you","['Balcony / Deck', 'Built in wardrobes', 'Garden / Courtyard', 'Dishwasher', 'Floorboards']",,
284,-37.9169112,145.0363542,https://www.domain.com.au/206-21-25-nicholson-street-bentleigh-vic-3204-16017176,206/21-25 Nicholson Street Bentleigh VIC 3204,520,3,2,1,Apartment / Unit / Flat,"VIEW, LOCATION, SHOPS & ZONE",,,,
285,-37.7234785,145.02503,https://www.domain.com.au/3-13-erskine-avenue-reservoir-vic-3073-16031814,3/13 Erskine Avenue Reservoir VIC 3073,410,2,2,1,Townhouse,"Sophisticated, Stylish & Secure",,"['Air conditioning', 'Floorboards', 'Built in wardrobes', 'Secure Parking', 'Balcony / Deck']",,
286,-37.9690832,145.0829575,https://www.domain.com.au/226-centre-dandenong-road-cheltenham-vic-3192-15855345,226 Centre Dandenong Road Cheltenham VIC 3192,510,3,2,2,House,Comfort & Appeal Steps to Amenities,,,,['540']
287,-37.8150137,144.9538694,https://www.domain.com.au/4006-33-rose-lane-melbourne-vic-3000-16073561,4006/33 Rose Lane Melbourne VIC 3000,420,1,1,0,Apartment / Unit / Flat,Contemporary Design and Great Location! - Unfurnished,,,,
288,-37.8985187,145.0144825,https://www.domain.com.au/1-52-gardenvale-road-caulfield-south-vic-3162-15921267,1/52 Gardenvale Road Caulfield South VIC 3162,510,3,1,1,House,Cosy in Caulfield South,,,,
289,-37.840987,144.872578,https://www.domain.com.au/60-132-mason-street-newport-vic-3015-15934563,60/132 Mason Street Newport VIC 3015,570,3,2,3,Townhouse,Overlooking Newport Lakes,,,,
290,-37.8149616,145.1937171,https://www.domain.com.au/406-339-mitcham-road-mitcham-vic-3132-16026562,406/339 Mitcham Road Mitcham VIC 3132,420,2,1,2,Apartment / Unit / Flat,Perfectly Positioned Two Bedroom Apartment,,,,
291,-37.8132781,144.9518268,https://www.domain.com.au/520-585-latrobe-street-melbourne-melbourne-vic-3000-11355962,"520/585 Latrobe Street, Melbourne Melbourne VIC 3000",1290,2,2,0,Apartment / Unit / Flat,Luxurious Family Apartment FOR LEASE,Phone enquiries - please quote property ID 18047,"['Air conditioning', 'Alarm System', 'Intercom']",,
292,-37.8225103,144.8763452,https://www.domain.com.au/47-benbow-street-yarraville-vic-3013-16061203,47 Benbow Street Yarraville VIC 3013,500,3,1,1,House,Spacious Home in Great Location,"Set on a quiet street sits this delightful 3-bedroom home. 
Located close to freeway access you will enjoy easy proximity to Yarraville town centre, green spaces at Cruickshank Park and McIvor Reserve and busses on Benbow St itself to help get you there. 
The best local schools, including Wembley Primary, and quality childcare centres are also nearby.",,,
